header: 
  seq: 1
  stamp: 
    secs: 1459170091
    nsecs: 484363904
  frame_id: ''
twist: 
  linear: 
    x: 0.783130824566
    y: -0.0
    z: 0.0
  angular: 
    x: 0.0
    y: 0.0
    z: -1.40126487872e-07
---
header: 
  seq: 2
  stamp: 
    secs: 1459170091
    nsecs: 565244876
  frame_id: ''
twist: 
  linear: 
    x: 0.783130824566
    y: -0.0
    z: 0.0
  angular: 
    x: 0.0
    y: 0.0
    z: -1.40126487872e-07
---
header: 
  seq: 3
  stamp: 
    secs: 1459170091
    nsecs: 645704808
  frame_id: ''
twist: 
  linear: 
    x: 0.786499142647
    y: -0.0
    z: 0.0
  angular: 
    x: 0.0
    y: 0.0
    z: 4.58188043704e-08
---
header: 
  seq: 4
  stamp: 
    secs: 1459170091
    nsecs: 726257802
  frame_id: ''
twist: 
  linear: 
    x: 0.786289513111
    y: -0.0
    z: 0.0
  angular: 
    x: 0.0
    y: 0.0
    z: 1.30875977303e-08
---
header: 
  seq: 5
  stamp: 
    secs: 1459170091
    nsecs: 807944412
  frame_id: ''
twist: 
  linear: 
    x: 0.786289513111
    y: -0.0
    z: 0.0
  angular: 
    x: 0.0
    y: 0.0
    z: 1.30875977303e-08
---
header: 
  seq: 6
  stamp: 
    secs: 1459170091
    nsecs: 888420025
  frame_id: ''
twist: 
  linear: 
    x: 0.786289513111
    y: -0.0
    z: 0.0
  angular: 
    x: 0.0
    y: 0.0
    z: 1.30875977303e-08
---
header: 
  seq: 7
  stamp: 
    secs: 1459170091
    nsecs: 964247674
  frame_id: ''
twist: 
  linear: 
    x: 0.789463281631
    y: -0.0
    z: 0.0
  angular: 
    x: 0.0
    y: 0.0
    z: 2.03676577201e-07
---
header: 
  seq: 8
  stamp: 
    secs: 1459170092
    nsecs: 45804741
  frame_id: ''
twist: 
  linear: 
    x: 0.786093175411
    y: -0.0
    z: 0.0
  angular: 
    x: 0.0
    y: 0.0
    z: -1.79909533885e-07
---
header: 
  seq: 9
  stamp: 
    secs: 1459170092
    nsecs: 127499182
  frame_id: ''
twist: 
  linear: 
    x: 0.786538183689
    y: -0.0
    z: 0.0
  angular: 
    x: 0.0
    y: 0.0
    z: -1.83284315083e-07
---
header: 
  seq: 10
  stamp: 
    secs: 1459170092
    nsecs: 208063141
  frame_id: ''
twist: 
  linear: 
    x: 0.786965787411
    y: -0.0
    z: 0.0
  angular: 
    x: 0.0
    y: 0.0
    z: -1.37537968592e-07
---
header: 
  seq: 11
  stamp: 
    secs: 1459170092
    nsecs: 291507928
  frame_id: ''
twist: 
  linear: 
    x: 0.785080611706
    y: -0.0
    z: 0.0
  angular: 
    x: 0.0
    y: 0.0
    z: 5.8803641372e-08
---
header: 
  seq: 12
  stamp: 
    secs: 1459170092
    nsecs: 372394346
  frame_id: ''
twist: 
  linear: 
    x: 0.785689592361
    y: -0.0
    z: 0.0
  angular: 
    x: 0.0
    y: 0.0
    z: -1.11159703661e-07
---
header: 
  seq: 13
  stamp: 
    secs: 1459170092
    nsecs: 453682421
  frame_id: ''
twist: 
  linear: 
    x: 0.785997748375
    y: -0.0
    z: 0.0
  angular: 
    x: 0.0
    y: 0.0
    z: 1.11203301707e-07
---
header: 
  seq: 14
  stamp: 
    secs: 1459170092
    nsecs: 525334011
  frame_id: ''
twist: 
  linear: 
    x: 0.787180900574
    y: -0.0
    z: 0.0
  angular: 
    x: 0.0
    y: 0.0
    z: -1.63780433224e-07
---
header: 
  seq: 15
  stamp: 
    secs: 1459170092
    nsecs: 606279573
  frame_id: ''
twist: 
  linear: 
    x: 0.787493467331
    y: -0.0
    z: 0.0
  angular: 
    x: 0.0
    y: 0.0
    z: 1.44184009811e-07
---
header: 
  seq: 16
  stamp: 
    secs: 1459170092
    nsecs: 690578222
  frame_id: ''
twist: 
  linear: 
    x: 0.787952303886
    y: -0.0
    z: 0.0
  angular: 
    x: 0.0
    y: 0.0
    z: 4.59034606745e-08
---
header: 
  seq: 17
  stamp: 
    secs: 1459170092
    nsecs: 771218440
  frame_id: ''
twist: 
  linear: 
    x: 0.788844108582
    y: -0.0
    z: 0.0
  angular: 
    x: 0.0
    y: 0.0
    z: -0.0
---
header: 
  seq: 18
  stamp: 
    secs: 1459170092
    nsecs: 851811135
  frame_id: ''
twist: 
  linear: 
    x: 0.790299654007
    y: -0.0
    z: 0.0
  angular: 
    x: 0.0
    y: 0.0
    z: -2.63086911007e-08
---
header: 
  seq: 19
  stamp: 
    secs: 1459170092
    nsecs: 931685511
  frame_id: ''
twist: 
  linear: 
    x: 0.789670646191
    y: -0.0
    z: 0.0
  angular: 
    x: 0.0
    y: 0.0
    z: -1.05151006946e-07
---
header: 
  seq: 20
  stamp: 
    secs: 1459170093
    nsecs: 8738139
  frame_id: ''
twist: 
  linear: 
    x: 0.770929227346
    y: -0.0
    z: 0.0
  angular: 
    x: 0.0
    y: 0.0
    z: -0.144219428839
---
header: 
  seq: 21
  stamp: 
    secs: 1459170093
    nsecs: 90310257
  frame_id: ''
twist: 
  linear: 
    x: 0.783919990063
    y: -0.0
    z: 0.0
  angular: 
    x: 0.0
    y: 0.0
    z: 1.82674206336e-07
---
header: 
  seq: 22
  stamp: 
    secs: 1459170093
    nsecs: 171242186
  frame_id: ''
twist: 
  linear: 
    x: 0.78665471077
    y: -0.0
    z: 0.0
  angular: 
    x: 0.0
    y: 0.0
    z: -6.54683817828e-08
---
header: 
  seq: 23
  stamp: 
    secs: 1459170093
    nsecs: 252939222
  frame_id: ''
twist: 
  linear: 
    x: 0.775836927894
    y: -0.0
    z: 0.0
  angular: 
    x: 0.0
    y: 0.0
    z: -0.138712830822
---
header: 
  seq: 24
  stamp: 
    secs: 1459170093
    nsecs: 334796189
  frame_id: ''
twist: 
  linear: 
    x: 0.788813650608
    y: -0.0
    z: 0.0
  angular: 
    x: 0.0
    y: 0.0
    z: -1.31296113851e-07
---
header: 
  seq: 25
  stamp: 
    secs: 1459170093
    nsecs: 416296332
  frame_id: ''
twist: 
  linear: 
    x: 0.789105117321
    y: -0.0
    z: 0.0
  angular: 
    x: 0.0
    y: 0.0
    z: -9.85084708327e-08
---
header: 
  seq: 26
  stamp: 
    secs: 1459170093
    nsecs: 496801672
  frame_id: ''
twist: 
  linear: 
    x: 0.788616836071
    y: -0.0
    z: 0.0
  angular: 
    x: 0.0
    y: 0.0
    z: -1.24700186823e-07
---
header: 
  seq: 27
  stamp: 
    secs: 1459170093
    nsecs: 578963053
  frame_id: ''
twist: 
  linear: 
    x: 0.786584615707
    y: -0.0
    z: 0.0
  angular: 
    x: 0.0
    y: 0.0
    z: -1.76748880157e-07
---
header: 
  seq: 28
  stamp: 
    secs: 1459170093
    nsecs: 660270866
  frame_id: ''
twist: 
  linear: 
    x: 0.789389252663
    y: -0.0
    z: 0.0
  angular: 
    x: 0.0
    y: 0.0
    z: -9.19743449895e-08
---
header: 
  seq: 29
  stamp: 
    secs: 1459170093
    nsecs: 743054540
  frame_id: ''
twist: 
  linear: 
    x: 0.792447626591
    y: -0.0
    z: 0.0
  angular: 
    x: 0.0
    y: 0.0
    z: -3.29752450791e-08
---
header: 
  seq: 30
  stamp: 
    secs: 1459170093
    nsecs: 817588884
  frame_id: ''
twist: 
  linear: 
    x: 0.792447626591
    y: -0.0
    z: 0.0
  angular: 
    x: 0.0
    y: 0.0
    z: -3.29752450791e-08
---
header: 
  seq: 31
  stamp: 
    secs: 1459170093
    nsecs: 898068778
  frame_id: ''
twist: 
  linear: 
    x: 0.792447626591
    y: -0.0
    z: 0.0
  angular: 
    x: 0.0
    y: 0.0
    z: -3.29752450791e-08
---
header: 
  seq: 32
  stamp: 
    secs: 1459170093
    nsecs: 978560581
  frame_id: ''
twist: 
  linear: 
    x: 0.792447626591
    y: -0.0
    z: 0.0
  angular: 
    x: 0.0
    y: 0.0
    z: -3.29752450791e-08
---
header: 
  seq: 33
  stamp: 
    secs: 1459170094
    nsecs: 59429650
  frame_id: ''
twist: 
  linear: 
    x: 0.792447626591
    y: -0.0
    z: 0.0
  angular: 
    x: 0.0
    y: 0.0
    z: -3.29752450791e-08
---
header: 
  seq: 34
  stamp: 
    secs: 1459170094
    nsecs: 129993366
  frame_id: ''
twist: 
  linear: 
    x: 0.792020380497
    y: -0.0
    z: 0.0
  angular: 
    x: 0.0
    y: 0.0
    z: 6.59149331215e-08
---
header: 
  seq: 35
  stamp: 
    secs: 1459170094
    nsecs: 221416856
  frame_id: ''
twist: 
  linear: 
    x: 0.799172580242
    y: -0.0
    z: 0.0
  angular: 
    x: 0.0
    y: 0.0
    z: 6.65101662487e-09
---
header: 
  seq: 36
  stamp: 
    secs: 1459170094
    nsecs: 307064666
  frame_id: ''
twist: 
  linear: 
    x: 0.799172580242
    y: -0.0
    z: 0.0
  angular: 
    x: 0.0
    y: 0.0
    z: 6.65101662487e-09
---
header: 
  seq: 37
  stamp: 
    secs: 1459170094
    nsecs: 382596854
  frame_id: ''
twist: 
  linear: 
    x: 0.797899246216
    y: -0.0
    z: 0.0
  angular: 
    x: 0.0
    y: 0.0
    z: 1.79291325346e-07
---
header: 
  seq: 38
  stamp: 
    secs: 1459170094
    nsecs: 456506967
  frame_id: ''
twist: 
  linear: 
    x: 0.797701656818
    y: -0.0
    z: 0.0
  angular: 
    x: 0.0
    y: 0.0
    z: 1.32775500871e-08
---
header: 
  seq: 39
  stamp: 
    secs: 1459170094
    nsecs: 539852112
  frame_id: ''
twist: 
  linear: 
    x: 0.798130095005
    y: -0.0
    z: 0.0
  angular: 
    x: 0.0
    y: 0.0
    z: -1.06277450692e-07
---
header: 
  seq: 40
  stamp: 
    secs: 1459170094
    nsecs: 621234917
  frame_id: ''
twist: 
  linear: 
    x: 0.798130095005
    y: -0.0
    z: 0.0
  angular: 
    x: 0.0
    y: 0.0
    z: -1.06277450692e-07
---
header: 
  seq: 41
  stamp: 
    secs: 1459170094
    nsecs: 702154200
  frame_id: ''
twist: 
  linear: 
    x: 0.794497728348
    y: -0.0
    z: 0.0
  angular: 
    x: 0.0
    y: 0.0
    z: 8.59574395994e-08
---
header: 
  seq: 42
  stamp: 
    secs: 1459170094
    nsecs: 784984725
  frame_id: ''
twist: 
  linear: 
    x: 0.794497728348
    y: -0.0
    z: 0.0
  angular: 
    x: 0.0
    y: 0.0
    z: 8.59574395994e-08
---
header: 
  seq: 43
  stamp: 
    secs: 1459170094
    nsecs: 859811502
  frame_id: ''
twist: 
  linear: 
    x: 0.794497728348
    y: -0.0
    z: 0.0
  angular: 
    x: 0.0
    y: 0.0
    z: 8.59574395994e-08
---
header: 
  seq: 44
  stamp: 
    secs: 1459170094
    nsecs: 943398649
  frame_id: ''
twist: 
  linear: 
    x: 0.794618904591
    y: -0.0
    z: 0.0
  angular: 
    x: 0.0
    y: 0.0
    z: -1.65327980324e-07
---
header: 
  seq: 45
  stamp: 
    secs: 1459170095
    nsecs: 24423223
  frame_id: ''
twist: 
  linear: 
    x: 0.794618904591
    y: -0.0
    z: 0.0
  angular: 
    x: 0.0
    y: 0.0
    z: -1.65327980324e-07
---
header: 
  seq: 46
  stamp: 
    secs: 1459170095
    nsecs: 125392117
  frame_id: ''
twist: 
  linear: 
    x: 0.794618904591
    y: -0.0
    z: 0.0
  angular: 
    x: 0.0
    y: 0.0
    z: -1.65327980324e-07
---
header: 
  seq: 47
  stamp: 
    secs: 1459170095
    nsecs: 180621791
  frame_id: ''
twist: 
  linear: 
    x: 0.795077502728
    y: -0.0
    z: 0.0
  angular: 
    x: 0.0
    y: 0.0
    z: 5.29354867215e-08
---
header: 
  seq: 48
  stamp: 
    secs: 1459170095
    nsecs: 262003389
  frame_id: ''
twist: 
  linear: 
    x: 0.795077502728
    y: -0.0
    z: 0.0
  angular: 
    x: 0.0
    y: 0.0
    z: 5.29354867215e-08
---
header: 
  seq: 49
  stamp: 
    secs: 1459170095
    nsecs: 369865136
  frame_id: ''
twist: 
  linear: 
    x: 0.795394122601
    y: -0.0
    z: 0.0
  angular: 
    x: 0.0
    y: 0.0
    z: 7.9434850447e-08
---
header: 
  seq: 50
  stamp: 
    secs: 1459170095
    nsecs: 426204880
  frame_id: ''
twist: 
  linear: 
    x: 0.795394122601
    y: -0.0
    z: 0.0
  angular: 
    x: 0.0
    y: 0.0
    z: 7.9434850447e-08
---
header: 
  seq: 51
  stamp: 
    secs: 1459170095
    nsecs: 502498331
  frame_id: ''
twist: 
  linear: 
    x: 0.795394122601
    y: -0.0
    z: 0.0
  angular: 
    x: 0.0
    y: 0.0
    z: 7.9434850447e-08
---
header: 
  seq: 52
  stamp: 
    secs: 1459170095
    nsecs: 587636143
  frame_id: ''
twist: 
  linear: 
    x: 0.795394122601
    y: -0.0
    z: 0.0
  angular: 
    x: 0.0
    y: 0.0
    z: 7.9434850447e-08
---
header: 
  seq: 53
  stamp: 
    secs: 1459170095
    nsecs: 674802868
  frame_id: ''
twist: 
  linear: 
    x: 0.795394122601
    y: -0.0
    z: 0.0
  angular: 
    x: 0.0
    y: 0.0
    z: 7.9434850447e-08
---
header: 
  seq: 54
  stamp: 
    secs: 1459170095
    nsecs: 746750341
  frame_id: ''
twist: 
  linear: 
    x: 0.795394122601
    y: -0.0
    z: 0.0
  angular: 
    x: 0.0
    y: 0.0
    z: 7.9434850447e-08
---
header: 
  seq: 55
  stamp: 
    secs: 1459170095
    nsecs: 845663796
  frame_id: ''
twist: 
  linear: 
    x: 0.795394122601
    y: -0.0
    z: 0.0
  angular: 
    x: 0.0
    y: 0.0
    z: 7.9434850447e-08
---
header: 
  seq: 56
  stamp: 
    secs: 1459170095
    nsecs: 906656302
  frame_id: ''
twist: 
  linear: 
    x: 0.795394122601
    y: -0.0
    z: 0.0
  angular: 
    x: 0.0
    y: 0.0
    z: 7.9434850447e-08
---
header: 
  seq: 57
  stamp: 
    secs: 1459170095
    nsecs: 997775409
  frame_id: ''
twist: 
  linear: 
    x: 0.79571300745
    y: -0.0
    z: 0.0
  angular: 
    x: 0.0
    y: 0.0
    z: -1.52311169272e-07
---
header: 
  seq: 58
  stamp: 
    secs: 1459170096
    nsecs: 73607911
  frame_id: ''
twist: 
  linear: 
    x: 0.79571300745
    y: -0.0
    z: 0.0
  angular: 
    x: 0.0
    y: 0.0
    z: -1.52311169272e-07
---
header: 
  seq: 59
  stamp: 
    secs: 1459170096
    nsecs: 146808142
  frame_id: ''
twist: 
  linear: 
    x: 0.79571300745
    y: -0.0
    z: 0.0
  angular: 
    x: 0.0
    y: 0.0
    z: -1.52311169272e-07
---
header: 
  seq: 60
  stamp: 
    secs: 1459170096
    nsecs: 233751366
  frame_id: ''
twist: 
  linear: 
    x: 0.79571300745
    y: -0.0
    z: 0.0
  angular: 
    x: 0.0
    y: 0.0
    z: -1.52311169272e-07
---
header: 
  seq: 61
  stamp: 
    secs: 1459170096
    nsecs: 315366552
  frame_id: ''
twist: 
  linear: 
    x: 0.795379281044
    y: -0.0
    z: 0.0
  angular: 
    x: 0.0
    y: 0.0
    z: 6.61944735354e-09
---
header: 
  seq: 62
  stamp: 
    secs: 1459170096
    nsecs: 386762368
  frame_id: ''
twist: 
  linear: 
    x: 0.795379281044
    y: -0.0
    z: 0.0
  angular: 
    x: 0.0
    y: 0.0
    z: 6.61944735354e-09
---
header: 
  seq: 63
  stamp: 
    secs: 1459170096
    nsecs: 467363051
  frame_id: ''
twist: 
  linear: 
    x: 0.795379281044
    y: -0.0
    z: 0.0
  angular: 
    x: 0.0
    y: 0.0
    z: 6.61944735354e-09
---
header: 
  seq: 64
  stamp: 
    secs: 1459170096
    nsecs: 546743009
  frame_id: ''
twist: 
  linear: 
    x: 0.795379281044
    y: -0.0
    z: 0.0
  angular: 
    x: 0.0
    y: 0.0
    z: 6.61944735354e-09
---
header: 
  seq: 65
  stamp: 
    secs: 1459170096
    nsecs: 627255611
  frame_id: ''
twist: 
  linear: 
    x: 0.795379281044
    y: -0.0
    z: 0.0
  angular: 
    x: 0.0
    y: 0.0
    z: 6.61944735354e-09
---
header: 
  seq: 66
  stamp: 
    secs: 1459170096
    nsecs: 710196446
  frame_id: ''
twist: 
  linear: 
    x: 0.795379281044
    y: -0.0
    z: 0.0
  angular: 
    x: 0.0
    y: 0.0
    z: 6.61944735354e-09
---
header: 
  seq: 67
  stamp: 
    secs: 1459170096
    nsecs: 790685754
  frame_id: ''
twist: 
  linear: 
    x: 0.795379281044
    y: -0.0
    z: 0.0
  angular: 
    x: 0.0
    y: 0.0
    z: 6.61944735354e-09
---
header: 
  seq: 68
  stamp: 
    secs: 1459170096
    nsecs: 876583153
  frame_id: ''
twist: 
  linear: 
    x: 0.795379281044
    y: -0.0
    z: 0.0
  angular: 
    x: 0.0
    y: 0.0
    z: 6.61944735354e-09
---
header: 
  seq: 69
  stamp: 
    secs: 1459170096
    nsecs: 958213768
  frame_id: ''
twist: 
  linear: 
    x: 0.795379281044
    y: -0.0
    z: 0.0
  angular: 
    x: 0.0
    y: 0.0
    z: 6.61944735354e-09
---
header: 
  seq: 70
  stamp: 
    secs: 1459170097
    nsecs: 29028229
  frame_id: ''
twist: 
  linear: 
    x: 0.795379281044
    y: -0.0
    z: 0.0
  angular: 
    x: 0.0
    y: 0.0
    z: 6.61944735354e-09
---
header: 
  seq: 71
  stamp: 
    secs: 1459170097
    nsecs: 121366026
  frame_id: ''
twist: 
  linear: 
    x: 0.798745572567
    y: -0.0
    z: 0.0
  angular: 
    x: 0.0
    y: 0.0
    z: 9.97119435813e-08
---
header: 
  seq: 72
  stamp: 
    secs: 1459170097
    nsecs: 205505739
  frame_id: ''
twist: 
  linear: 
    x: 0.798745572567
    y: -0.0
    z: 0.0
  angular: 
    x: 0.0
    y: 0.0
    z: 9.97119435813e-08
---
header: 
  seq: 73
  stamp: 
    secs: 1459170097
    nsecs: 282385781
  frame_id: ''
twist: 
  linear: 
    x: 0.798745572567
    y: -0.0
    z: 0.0
  angular: 
    x: 0.0
    y: 0.0
    z: 9.97119435813e-08
---
header: 
  seq: 74
  stamp: 
    secs: 1459170097
    nsecs: 362932960
  frame_id: ''
twist: 
  linear: 
    x: 0.798745572567
    y: -0.0
    z: 0.0
  angular: 
    x: 0.0
    y: 0.0
    z: 9.97119435813e-08
---
header: 
  seq: 75
  stamp: 
    secs: 1459170097
    nsecs: 433353488
  frame_id: ''
twist: 
  linear: 
    x: 0.795619368553
    y: -0.0
    z: 0.0
  angular: 
    x: 0.0
    y: 0.0
    z: 1.39050354505e-07
---
header: 
  seq: 76
  stamp: 
    secs: 1459170097
    nsecs: 519646017
  frame_id: ''
twist: 
  linear: 
    x: 0.795619368553
    y: -0.0
    z: 0.0
  angular: 
    x: 0.0
    y: 0.0
    z: 1.39050354505e-07
---
header: 
  seq: 77
  stamp: 
    secs: 1459170097
    nsecs: 601064106
  frame_id: ''
twist: 
  linear: 
    x: 0.795378029346
    y: -0.0
    z: 0.0
  angular: 
    x: 0.0
    y: 0.0
    z: 6.61943693644e-08
---
header: 
  seq: 78
  stamp: 
    secs: 1459170097
    nsecs: 683165798
  frame_id: ''
twist: 
  linear: 
    x: 0.795378029346
    y: -0.0
    z: 0.0
  angular: 
    x: 0.0
    y: 0.0
    z: 6.61943693644e-08
---
header: 
  seq: 79
  stamp: 
    secs: 1459170097
    nsecs: 755416069
  frame_id: ''
twist: 
  linear: 
    x: 0.795378029346
    y: -0.0
    z: 0.0
  angular: 
    x: 0.0
    y: 0.0
    z: 6.61943693644e-08
---
header: 
  seq: 80
  stamp: 
    secs: 1459170097
    nsecs: 836239859
  frame_id: ''
twist: 
  linear: 
    x: 0.798784077168
    y: -0.0
    z: 0.0
  angular: 
    x: 0.0
    y: 0.0
    z: 1.2630788375e-07
---
header: 
  seq: 81
  stamp: 
    secs: 1459170097
    nsecs: 916769553
  frame_id: ''
twist: 
  linear: 
    x: 0.798784077168
    y: -0.0
    z: 0.0
  angular: 
    x: 0.0
    y: 0.0
    z: 1.2630788375e-07
---
header: 
  seq: 82
  stamp: 
    secs: 1459170097
    nsecs: 999604392
  frame_id: ''
twist: 
  linear: 
    x: 0.798784077168
    y: -0.0
    z: 0.0
  angular: 
    x: 0.0
    y: 0.0
    z: 1.2630788375e-07
---
header: 
  seq: 83
  stamp: 
    secs: 1459170098
    nsecs: 84756523
  frame_id: ''
twist: 
  linear: 
    x: 0.798784077168
    y: -0.0
    z: 0.0
  angular: 
    x: 0.0
    y: 0.0
    z: 1.2630788375e-07
---
header: 
  seq: 84
  stamp: 
    secs: 1459170098
    nsecs: 162120704
  frame_id: ''
twist: 
  linear: 
    x: 0.798784077168
    y: -0.0
    z: 0.0
  angular: 
    x: 0.0
    y: 0.0
    z: 1.2630788375e-07
---
header: 
  seq: 85
  stamp: 
    secs: 1459170098
    nsecs: 237627391
  frame_id: ''
twist: 
  linear: 
    x: 0.802144110203
    y: -0.0
    z: 0.0
  angular: 
    x: 0.0
    y: 0.0
    z: -1.66893670541e-07
---
header: 
  seq: 86
  stamp: 
    secs: 1459170098
    nsecs: 318443598
  frame_id: ''
twist: 
  linear: 
    x: 0.802144110203
    y: -0.0
    z: 0.0
  angular: 
    x: 0.0
    y: 0.0
    z: -1.66893670541e-07
---
header: 
  seq: 87
  stamp: 
    secs: 1459170098
    nsecs: 400904079
  frame_id: ''
twist: 
  linear: 
    x: 0.802144110203
    y: -0.0
    z: 0.0
  angular: 
    x: 0.0
    y: 0.0
    z: -1.66893670541e-07
---
header: 
  seq: 88
  stamp: 
    secs: 1459170098
    nsecs: 478671266
  frame_id: ''
twist: 
  linear: 
    x: 0.802144110203
    y: -0.0
    z: 0.0
  angular: 
    x: 0.0
    y: 0.0
    z: -1.66893670541e-07
---
header: 
  seq: 89
  stamp: 
    secs: 1459170098
    nsecs: 561184299
  frame_id: ''
twist: 
  linear: 
    x: 0.802144110203
    y: -0.0
    z: 0.0
  angular: 
    x: 0.0
    y: 0.0
    z: -1.66893670541e-07
---
header: 
  seq: 90
  stamp: 
    secs: 1459170098
    nsecs: 645658332
  frame_id: ''
twist: 
  linear: 
    x: 0.802144110203
    y: -0.0
    z: 0.0
  angular: 
    x: 0.0
    y: 0.0
    z: -1.66893670541e-07
---
header: 
  seq: 91
  stamp: 
    secs: 1459170098
    nsecs: 730409321
  frame_id: ''
twist: 
  linear: 
    x: 0.802144110203
    y: -0.0
    z: 0.0
  angular: 
    x: 0.0
    y: 0.0
    z: -1.66893670541e-07
---
header: 
  seq: 92
  stamp: 
    secs: 1459170098
    nsecs: 803986735
  frame_id: ''
twist: 
  linear: 
    x: 0.801787376404
    y: -0.0
    z: 0.0
  angular: 
    x: 0.0
    y: 0.0
    z: 1.26782781012e-07
---
header: 
  seq: 93
  stamp: 
    secs: 1459170098
    nsecs: 889426037
  frame_id: ''
twist: 
  linear: 
    x: 0.809896528721
    y: -0.0
    z: 0.0
  angular: 
    x: 0.0
    y: 0.0
    z: 4.04415922927e-08
---
header: 
  seq: 94
  stamp: 
    secs: 1459170098
    nsecs: 973496515
  frame_id: ''
twist: 
  linear: 
    x: 0.809896528721
    y: -0.0
    z: 0.0
  angular: 
    x: 0.0
    y: 0.0
    z: 4.04415922927e-08
---
header: 
  seq: 95
  stamp: 
    secs: 1459170099
    nsecs: 45229446
  frame_id: ''
twist: 
  linear: 
    x: 0.809896528721
    y: -0.0
    z: 0.0
  angular: 
    x: 0.0
    y: 0.0
    z: 4.04415922927e-08
---
header: 
  seq: 96
  stamp: 
    secs: 1459170099
    nsecs: 125872478
  frame_id: ''
twist: 
  linear: 
    x: 0.809896528721
    y: -0.0
    z: 0.0
  angular: 
    x: 0.0
    y: 0.0
    z: 4.04415922927e-08
---
header: 
  seq: 97
  stamp: 
    secs: 1459170099
    nsecs: 210591920
  frame_id: ''
twist: 
  linear: 
    x: 0.809896528721
    y: -0.0
    z: 0.0
  angular: 
    x: 0.0
    y: 0.0
    z: 4.04415922927e-08
---
header: 
  seq: 98
  stamp: 
    secs: 1459170099
    nsecs: 286324452
  frame_id: ''
twist: 
  linear: 
    x: 0.804852366447
    y: -0.0
    z: 0.0
  angular: 
    x: 0.0
    y: 0.0
    z: 2.07646864603e-07
---
header: 
  seq: 99
  stamp: 
    secs: 1459170099
    nsecs: 369387435
  frame_id: ''
twist: 
  linear: 
    x: 0.801489710808
    y: -0.0
    z: 0.0
  angular: 
    x: 0.0
    y: 0.0
    z: -2.00109019868e-07
---
header: 
  seq: 100
  stamp: 
    secs: 1459170099
    nsecs: 453027892
  frame_id: ''
twist: 
  linear: 
    x: 0.800840437412
    y: -0.0
    z: 0.0
  angular: 
    x: 0.0
    y: 0.0
    z: 1.26633046104e-07
---
header: 
  seq: 101
  stamp: 
    secs: 1459170099
    nsecs: 525880613
  frame_id: ''
twist: 
  linear: 
    x: 0.804574370384
    y: -0.0
    z: 0.0
  angular: 
    x: 0.0
    y: 0.0
    z: -2.00879170995e-08
---
header: 
  seq: 102
  stamp: 
    secs: 1459170099
    nsecs: 612508379
  frame_id: ''
twist: 
  linear: 
    x: 0.804567694664
    y: -0.0
    z: 0.0
  angular: 
    x: 0.0
    y: 0.0
    z: 2.14269337876e-07
---
header: 
  seq: 103
  stamp: 
    secs: 1459170099
    nsecs: 687271916
  frame_id: ''
twist: 
  linear: 
    x: 0.804567694664
    y: -0.0
    z: 0.0
  angular: 
    x: 0.0
    y: 0.0
    z: 2.14269337876e-07
---
header: 
  seq: 104
  stamp: 
    secs: 1459170099
    nsecs: 773325236
  frame_id: ''
twist: 
  linear: 
    x: 0.808215200901
    y: -0.0
    z: 0.0
  angular: 
    x: 0.0
    y: 0.0
    z: 1.95061909338e-07
---
header: 
  seq: 105
  stamp: 
    secs: 1459170099
    nsecs: 855579712
  frame_id: ''
twist: 
  linear: 
    x: 0.808215200901
    y: -0.0
    z: 0.0
  angular: 
    x: 0.0
    y: 0.0
    z: 1.95061909338e-07
---
header: 
  seq: 106
  stamp: 
    secs: 1459170099
    nsecs: 930190824
  frame_id: ''
twist: 
  linear: 
    x: 0.804678738117
    y: -0.0
    z: 0.0
  angular: 
    x: 0.0
    y: 0.0
    z: -1.47330500994e-07
---
header: 
  seq: 107
  stamp: 
    secs: 1459170100
    nsecs: 11843347
  frame_id: ''
twist: 
  linear: 
    x: 0.804678738117
    y: -0.0
    z: 0.0
  angular: 
    x: 0.0
    y: 0.0
    z: -1.47330500994e-07
---
header: 
  seq: 108
  stamp: 
    secs: 1459170100
    nsecs: 94001388
  frame_id: ''
twist: 
  linear: 
    x: 0.804678738117
    y: -0.0
    z: 0.0
  angular: 
    x: 0.0
    y: 0.0
    z: -1.47330500994e-07
---
header: 
  seq: 109
  stamp: 
    secs: 1459170100
    nsecs: 168222948
  frame_id: ''
twist: 
  linear: 
    x: 0.801325857639
    y: -0.0
    z: 0.0
  angular: 
    x: 0.0
    y: 0.0
    z: 8.00272441702e-08
---
header: 
  seq: 110
  stamp: 
    secs: 1459170100
    nsecs: 248709461
  frame_id: ''
twist: 
  linear: 
    x: 0.806389987469
    y: -0.0
    z: 0.0
  angular: 
    x: 0.0
    y: 0.0
    z: 1.61065982854e-07
---
header: 
  seq: 111
  stamp: 
    secs: 1459170100
    nsecs: 331245204
  frame_id: ''
twist: 
  linear: 
    x: 0.806389987469
    y: -0.0
    z: 0.0
  angular: 
    x: 0.0
    y: 0.0
    z: 1.61065982854e-07
---
header: 
  seq: 112
  stamp: 
    secs: 1459170100
    nsecs: 414131217
  frame_id: ''
twist: 
  linear: 
    x: 0.806389987469
    y: -0.0
    z: 0.0
  angular: 
    x: 0.0
    y: 0.0
    z: 1.61065982854e-07
---
header: 
  seq: 113
  stamp: 
    secs: 1459170100
    nsecs: 489848114
  frame_id: ''
twist: 
  linear: 
    x: 0.801391422749
    y: -0.0
    z: 0.0
  angular: 
    x: 0.0
    y: 0.0
    z: 2.00084480155e-07
---
header: 
  seq: 114
  stamp: 
    secs: 1459170100
    nsecs: 570339817
  frame_id: ''
twist: 
  linear: 
    x: 0.801391422749
    y: -0.0
    z: 0.0
  angular: 
    x: 0.0
    y: 0.0
    z: 2.00084480155e-07
---
header: 
  seq: 115
  stamp: 
    secs: 1459170100
    nsecs: 654853991
  frame_id: ''
twist: 
  linear: 
    x: 0.801391422749
    y: -0.0
    z: 0.0
  angular: 
    x: 0.0
    y: 0.0
    z: 2.00084480155e-07
---
header: 
  seq: 116
  stamp: 
    secs: 1459170100
    nsecs: 738115593
  frame_id: ''
twist: 
  linear: 
    x: 0.798053920269
    y: -0.0
    z: 0.0
  angular: 
    x: 0.0
    y: 0.0
    z: -1.59400961118e-07
---
header: 
  seq: 117
  stamp: 
    secs: 1459170100
    nsecs: 814054855
  frame_id: ''
twist: 
  linear: 
    x: 0.797840118408
    y: -0.0
    z: 0.0
  angular: 
    x: 0.0
    y: 0.0
    z: -6.63992737328e-09
---
header: 
  seq: 118
  stamp: 
    secs: 1459170100
    nsecs: 901476962
  frame_id: ''
twist: 
  linear: 
    x: 0.797840118408
    y: -0.0
    z: 0.0
  angular: 
    x: 0.0
    y: 0.0
    z: -6.63992737328e-09
---
header: 
  seq: 119
  stamp: 
    secs: 1459170100
    nsecs: 973652921
  frame_id: ''
twist: 
  linear: 
    x: 0.797840118408
    y: -0.0
    z: 0.0
  angular: 
    x: 0.0
    y: 0.0
    z: -6.63992737328e-09
---
header: 
  seq: 120
  stamp: 
    secs: 1459170101
    nsecs: 56281188
  frame_id: ''
twist: 
  linear: 
    x: 0.797840118408
    y: -0.0
    z: 0.0
  angular: 
    x: 0.0
    y: 0.0
    z: -6.63992737328e-09
---
header: 
  seq: 121
  stamp: 
    secs: 1459170101
    nsecs: 140593346
  frame_id: ''
twist: 
  linear: 
    x: 0.797840118408
    y: -0.0
    z: 0.0
  angular: 
    x: 0.0
    y: 0.0
    z: -6.63992737328e-09
---
header: 
  seq: 122
  stamp: 
    secs: 1459170101
    nsecs: 215745489
  frame_id: ''
twist: 
  linear: 
    x: 0.797840118408
    y: -0.0
    z: 0.0
  angular: 
    x: 0.0
    y: 0.0
    z: -6.63992737328e-09
---
header: 
  seq: 123
  stamp: 
    secs: 1459170101
    nsecs: 299427288
  frame_id: ''
twist: 
  linear: 
    x: 0.797840118408
    y: -0.0
    z: 0.0
  angular: 
    x: 0.0
    y: 0.0
    z: -6.63992737328e-09
---
header: 
  seq: 124
  stamp: 
    secs: 1459170101
    nsecs: 376911742
  frame_id: ''
twist: 
  linear: 
    x: 0.797840118408
    y: -0.0
    z: 0.0
  angular: 
    x: 0.0
    y: 0.0
    z: -6.63992737328e-09
---
header: 
  seq: 125
  stamp: 
    secs: 1459170101
    nsecs: 460191391
  frame_id: ''
twist: 
  linear: 
    x: 0.79995650053
    y: -0.0
    z: 0.0
  angular: 
    x: 0.0
    y: 0.0
    z: -1.79753599066e-07
---
header: 
  seq: 126
  stamp: 
    secs: 1459170101
    nsecs: 544525901
  frame_id: ''
twist: 
  linear: 
    x: 0.797840118408
    y: -0.0
    z: 0.0
  angular: 
    x: 0.0
    y: 0.0
    z: -6.63992737328e-09
---
header: 
  seq: 127
  stamp: 
    secs: 1459170101
    nsecs: 617304870
  frame_id: ''
twist: 
  linear: 
    x: 0.797701656818
    y: -0.0
    z: 0.0
  angular: 
    x: 0.0
    y: 0.0
    z: 1.32775500871e-08
---
header: 
  seq: 128
  stamp: 
    secs: 1459170101
    nsecs: 697777764
  frame_id: ''
twist: 
  linear: 
    x: 0.797840118408
    y: -0.0
    z: 0.0
  angular: 
    x: 0.0
    y: 0.0
    z: -6.63992737328e-09
---
header: 
  seq: 129
  stamp: 
    secs: 1459170101
    nsecs: 778845210
  frame_id: ''
twist: 
  linear: 
    x: 0.797840118408
    y: -0.0
    z: 0.0
  angular: 
    x: 0.0
    y: 0.0
    z: -6.63992737328e-09
---
header: 
  seq: 130
  stamp: 
    secs: 1459170101
    nsecs: 866379198
  frame_id: ''
twist: 
  linear: 
    x: 0.798127055168
    y: -0.0
    z: 0.0
  angular: 
    x: 0.0
    y: 0.0
    z: -1.85984830348e-07
---
header: 
  seq: 131
  stamp: 
    secs: 1459170101
    nsecs: 937601036
  frame_id: ''
twist: 
  linear: 
    x: 0.795153141022
    y: -0.0
    z: 0.0
  angular: 
    x: 0.0
    y: 0.0
    z: 1.58821567937e-07
---
header: 
  seq: 132
  stamp: 
    secs: 1459170102
    nsecs: 21090182
  frame_id: ''
twist: 
  linear: 
    x: 0.794764518738
    y: -0.0
    z: 0.0
  angular: 
    x: 0.0
    y: 0.0
    z: -2.05044263139e-07
---
header: 
  seq: 133
  stamp: 
    secs: 1459170102
    nsecs: 105278803
  frame_id: ''
twist: 
  linear: 
    x: 0.794764518738
    y: -0.0
    z: 0.0
  angular: 
    x: 0.0
    y: 0.0
    z: -2.05044263139e-07
---
header: 
  seq: 134
  stamp: 
    secs: 1459170102
    nsecs: 175814604
  frame_id: ''
twist: 
  linear: 
    x: 0.794412493706
    y: -0.0
    z: 0.0
  angular: 
    x: 0.0
    y: 0.0
    z: -2.04953442888e-07
---
header: 
  seq: 135
  stamp: 
    secs: 1459170102
    nsecs: 262639135
  frame_id: ''
twist: 
  linear: 
    x: 0.79447644949
    y: -0.0
    z: 0.0
  angular: 
    x: 0.0
    y: 0.0
    z: -1.32238672954e-08
---
header: 
  seq: 136
  stamp: 
    secs: 1459170102
    nsecs: 334078283
  frame_id: ''
twist: 
  linear: 
    x: 0.79447644949
    y: -0.0
    z: 0.0
  angular: 
    x: 0.0
    y: 0.0
    z: -1.32238672954e-08
---
header: 
  seq: 137
  stamp: 
    secs: 1459170102
    nsecs: 418889869
  frame_id: ''
twist: 
  linear: 
    x: 0.797566413879
    y: -0.0
    z: 0.0
  angular: 
    x: 0.0
    y: 0.0
    z: 1.1284004151e-07
---
header: 
  seq: 138
  stamp: 
    secs: 1459170102
    nsecs: 500074183
  frame_id: ''
twist: 
  linear: 
    x: 0.797840118408
    y: -0.0
    z: 0.0
  angular: 
    x: 0.0
    y: 0.0
    z: -6.63992737328e-09
---
header: 
  seq: 139
  stamp: 
    secs: 1459170102
    nsecs: 580597215
  frame_id: ''
twist: 
  linear: 
    x: 0.794472396374
    y: -0.0
    z: 0.0
  angular: 
    x: 0.0
    y: 0.0
    z: 9.2566598826e-08
---
header: 
  seq: 140
  stamp: 
    secs: 1459170102
    nsecs: 665511741
  frame_id: ''
twist: 
  linear: 
    x: 0.79447644949
    y: -0.0
    z: 0.0
  angular: 
    x: 0.0
    y: 0.0
    z: -1.32238672954e-08
---
header: 
  seq: 141
  stamp: 
    secs: 1459170102
    nsecs: 737878769
  frame_id: ''
twist: 
  linear: 
    x: 0.794805049896
    y: -0.0
    z: 0.0
  angular: 
    x: 0.0
    y: 0.0
    z: -4.63026786924e-08
---
header: 
  seq: 142
  stamp: 
    secs: 1459170102
    nsecs: 823650383
  frame_id: ''
twist: 
  linear: 
    x: 0.791402220726
    y: -0.0
    z: 0.0
  angular: 
    x: 0.0
    y: 0.0
    z: 1.31726975052e-07
---
header: 
  seq: 143
  stamp: 
    secs: 1459170102
    nsecs: 897997004
  frame_id: ''
twist: 
  linear: 
    x: 0.79111301899
    y: -0.0
    z: 0.0
  angular: 
    x: 0.0
    y: 0.0
    z: 1.9751825719e-08
---
header: 
  seq: 144
  stamp: 
    secs: 1459170102
    nsecs: 979721964
  frame_id: ''
twist: 
  linear: 
    x: 0.79111301899
    y: -0.0
    z: 0.0
  angular: 
    x: 0.0
    y: 0.0
    z: 1.9751825719e-08
---
header: 
  seq: 145
  stamp: 
    secs: 1459170103
    nsecs: 56255475
  frame_id: ''
twist: 
  linear: 
    x: 0.790704250336
    y: -0.0
    z: 0.0
  angular: 
    x: 0.0
    y: 0.0
    z: 1.64513499473e-07
---
header: 
  seq: 146
  stamp: 
    secs: 1459170103
    nsecs: 137438476
  frame_id: ''
twist: 
  linear: 
    x: 0.790704250336
    y: -0.0
    z: 0.0
  angular: 
    x: 0.0
    y: 0.0
    z: 1.64513499473e-07
---
header: 
  seq: 147
  stamp: 
    secs: 1459170103
    nsecs: 229593543
  frame_id: ''
twist: 
  linear: 
    x: 0.79111301899
    y: -0.0
    z: 0.0
  angular: 
    x: 0.0
    y: 0.0
    z: 1.9751825719e-08
---
header: 
  seq: 148
  stamp: 
    secs: 1459170103
    nsecs: 302953712
  frame_id: ''
twist: 
  linear: 
    x: 0.79111301899
    y: -0.0
    z: 0.0
  angular: 
    x: 0.0
    y: 0.0
    z: 1.9751825719e-08
---
header: 
  seq: 149
  stamp: 
    secs: 1459170103
    nsecs: 377577809
  frame_id: ''
twist: 
  linear: 
    x: 0.79111301899
    y: -0.0
    z: 0.0
  angular: 
    x: 0.0
    y: 0.0
    z: 1.9751825719e-08
---
header: 
  seq: 150
  stamp: 
    secs: 1459170103
    nsecs: 463606347
  frame_id: ''
twist: 
  linear: 
    x: 0.790837168694
    y: -0.0
    z: 0.0
  angular: 
    x: 0.0
    y: 0.0
    z: -1.05306338813e-07
---
header: 
  seq: 151
  stamp: 
    secs: 1459170103
    nsecs: 545982649
  frame_id: ''
twist: 
  linear: 
    x: 0.790837168694
    y: -0.0
    z: 0.0
  angular: 
    x: 0.0
    y: 0.0
    z: -1.05306338813e-07
---
header: 
  seq: 152
  stamp: 
    secs: 1459170103
    nsecs: 627743192
  frame_id: ''
twist: 
  linear: 
    x: 0.7904484272
    y: -0.0
    z: 0.0
  angular: 
    x: 0.0
    y: 0.0
    z: 5.26272873759e-08
---
header: 
  seq: 153
  stamp: 
    secs: 1459170103
    nsecs: 702184415
  frame_id: ''
twist: 
  linear: 
    x: 0.7904484272
    y: -0.0
    z: 0.0
  angular: 
    x: 0.0
    y: 0.0
    z: 5.26272873759e-08
---
header: 
  seq: 154
  stamp: 
    secs: 1459170103
    nsecs: 788040620
  frame_id: ''
twist: 
  linear: 
    x: 0.790574610233
    y: -0.0
    z: 0.0
  angular: 
    x: 0.0
    y: 0.0
    z: 8.55329938441e-08
---
header: 
  seq: 155
  stamp: 
    secs: 1459170103
    nsecs: 864440087
  frame_id: ''
twist: 
  linear: 
    x: 0.790574610233
    y: -0.0
    z: 0.0
  angular: 
    x: 0.0
    y: 0.0
    z: 8.55329938441e-08
---
header: 
  seq: 156
  stamp: 
    secs: 1459170103
    nsecs: 947320469
  frame_id: ''
twist: 
  linear: 
    x: 0.790574610233
    y: -0.0
    z: 0.0
  angular: 
    x: 0.0
    y: 0.0
    z: 8.55329938441e-08
---
header: 
  seq: 157
  stamp: 
    secs: 1459170104
    nsecs: 25139469
  frame_id: ''
twist: 
  linear: 
    x: 0.790574610233
    y: -0.0
    z: 0.0
  angular: 
    x: 0.0
    y: 0.0
    z: 8.55329938441e-08
---
header: 
  seq: 158
  stamp: 
    secs: 1459170104
    nsecs: 110312179
  frame_id: ''
twist: 
  linear: 
    x: 0.790574610233
    y: -0.0
    z: 0.0
  angular: 
    x: 0.0
    y: 0.0
    z: 8.55329938441e-08
---
header: 
  seq: 159
  stamp: 
    secs: 1459170104
    nsecs: 185414906
  frame_id: ''
twist: 
  linear: 
    x: 0.790574610233
    y: -0.0
    z: 0.0
  angular: 
    x: 0.0
    y: 0.0
    z: 8.55329938441e-08
---
header: 
  seq: 160
  stamp: 
    secs: 1459170104
    nsecs: 280544175
  frame_id: ''
twist: 
  linear: 
    x: 0.790574610233
    y: -0.0
    z: 0.0
  angular: 
    x: 0.0
    y: 0.0
    z: 8.55329938441e-08
---
header: 
  seq: 161
  stamp: 
    secs: 1459170104
    nsecs: 342328739
  frame_id: ''
twist: 
  linear: 
    x: 0.790574610233
    y: -0.0
    z: 0.0
  angular: 
    x: 0.0
    y: 0.0
    z: 8.55329938441e-08
---
header: 
  seq: 162
  stamp: 
    secs: 1459170104
    nsecs: 433542226
  frame_id: ''
twist: 
  linear: 
    x: 0.790574610233
    y: -0.0
    z: 0.0
  angular: 
    x: 0.0
    y: 0.0
    z: 8.55329938441e-08
---
header: 
  seq: 163
  stamp: 
    secs: 1459170104
    nsecs: 504830297
  frame_id: ''
twist: 
  linear: 
    x: 0.790574610233
    y: -0.0
    z: 0.0
  angular: 
    x: 0.0
    y: 0.0
    z: 8.55329938441e-08
---
header: 
  seq: 164
  stamp: 
    secs: 1459170104
    nsecs: 588879274
  frame_id: ''
twist: 
  linear: 
    x: 0.790574610233
    y: -0.0
    z: 0.0
  angular: 
    x: 0.0
    y: 0.0
    z: 8.55329938441e-08
---
header: 
  seq: 165
  stamp: 
    secs: 1459170104
    nsecs: 665204518
  frame_id: ''
twist: 
  linear: 
    x: 0.797188878059
    y: -0.0
    z: 0.0
  angular: 
    x: 0.0
    y: 0.0
    z: -1.9903522514e-08
---
header: 
  seq: 166
  stamp: 
    secs: 1459170104
    nsecs: 749374048
  frame_id: ''
twist: 
  linear: 
    x: 0.79447644949
    y: -0.0
    z: 0.0
  angular: 
    x: 0.0
    y: 0.0
    z: -1.32238672954e-08
---
header: 
  seq: 167
  stamp: 
    secs: 1459170104
    nsecs: 824108136
  frame_id: ''
twist: 
  linear: 
    x: 0.794804513454
    y: -0.0
    z: 0.0
  angular: 
    x: 0.0
    y: 0.0
    z: 1.65366598004e-07
---
header: 
  seq: 168
  stamp: 
    secs: 1459170104
    nsecs: 906202649
  frame_id: ''
twist: 
  linear: 
    x: 0.794764518738
    y: -0.0
    z: 0.0
  angular: 
    x: 0.0
    y: 0.0
    z: -2.05044263139e-07
---
header: 
  seq: 169
  stamp: 
    secs: 1459170104
    nsecs: 996963583
  frame_id: ''
twist: 
  linear: 
    x: 0.794764518738
    y: -0.0
    z: 0.0
  angular: 
    x: 0.0
    y: 0.0
    z: -2.05044263139e-07
---
header: 
  seq: 170
  stamp: 
    secs: 1459170105
    nsecs: 79521279
  frame_id: ''
twist: 
  linear: 
    x: 0.801203787327
    y: -0.0
    z: 0.0
  angular: 
    x: 0.0
    y: 0.0
    z: 6.00112898897e-08
---
header: 
  seq: 171
  stamp: 
    secs: 1459170105
    nsecs: 150774148
  frame_id: ''
twist: 
  linear: 
    x: 0.798127055168
    y: -0.0
    z: 0.0
  angular: 
    x: 0.0
    y: 0.0
    z: -1.85984830348e-07
---
header: 
  seq: 172
  stamp: 
    secs: 1459170105
    nsecs: 232726853
  frame_id: ''
twist: 
  linear: 
    x: 0.798439919949
    y: -0.0
    z: 0.0
  angular: 
    x: 0.0
    y: 0.0
    z: -1.79412817014e-07
---
header: 
  seq: 173
  stamp: 
    secs: 1459170105
    nsecs: 315802761
  frame_id: ''
twist: 
  linear: 
    x: 0.798754751682
    y: -0.0
    z: 0.0
  angular: 
    x: 0.0
    y: 0.0
    z: 5.98278536774e-08
---
header: 
  seq: 174
  stamp: 
    secs: 1459170105
    nsecs: 403432232
  frame_id: ''
twist: 
  linear: 
    x: 0.798754751682
    y: -0.0
    z: 0.0
  angular: 
    x: 0.0
    y: 0.0
    z: 5.98278536774e-08
---
header: 
  seq: 175
  stamp: 
    secs: 1459170105
    nsecs: 471491516
  frame_id: ''
twist: 
  linear: 
    x: 0.798754751682
    y: -0.0
    z: 0.0
  angular: 
    x: 0.0
    y: 0.0
    z: 5.98278536774e-08
---
header: 
  seq: 176
  stamp: 
    secs: 1459170105
    nsecs: 553794441
  frame_id: ''
twist: 
  linear: 
    x: 0.798754751682
    y: -0.0
    z: 0.0
  angular: 
    x: 0.0
    y: 0.0
    z: 5.98278536774e-08
---
header: 
  seq: 177
  stamp: 
    secs: 1459170105
    nsecs: 634709301
  frame_id: ''
twist: 
  linear: 
    x: 0.798754751682
    y: -0.0
    z: 0.0
  angular: 
    x: 0.0
    y: 0.0
    z: 5.98278536774e-08
---
header: 
  seq: 178
  stamp: 
    secs: 1459170105
    nsecs: 713862500
  frame_id: ''
twist: 
  linear: 
    x: 0.794999182224
    y: -0.0
    z: 0.0
  angular: 
    x: 0.0
    y: 0.0
    z: -1.9848852082e-07
---
header: 
  seq: 179
  stamp: 
    secs: 1459170105
    nsecs: 723926395
  frame_id: ''
twist: 
  linear: 
    x: 0.794999182224
    y: -0.0
    z: 0.0
  angular: 
    x: 0.0
    y: 0.0
    z: -1.9848852082e-07
---
header: 
  seq: 180
  stamp: 
    secs: 1459170105
    nsecs: 723926395
  frame_id: ''
twist: 
  linear: 
    x: 0.795703828335
    y: -0.0
    z: 0.0
  angular: 
    x: 0.0
    y: 0.0
    z: 6.6221483589e-08
---
header: 
  seq: 181
  stamp: 
    secs: 1459170105
    nsecs: 723926395
  frame_id: ''
twist: 
  linear: 
    x: 0.795703828335
    y: -0.0
    z: 0.0
  angular: 
    x: 0.0
    y: 0.0
    z: 6.6221483589e-08
---
header: 
  seq: 182
  stamp: 
    secs: 1459170105
    nsecs: 723926395
  frame_id: ''
twist: 
  linear: 
    x: 0.795703828335
    y: -0.0
    z: 0.0
  angular: 
    x: 0.0
    y: 0.0
    z: 6.6221483589e-08
---
header: 
  seq: 183
  stamp: 
    secs: 1459170105
    nsecs: 723926395
  frame_id: ''
twist: 
  linear: 
    x: 0.795703828335
    y: -0.0
    z: 0.0
  angular: 
    x: 0.0
    y: 0.0
    z: 6.6221483589e-08
---
header: 
  seq: 184
  stamp: 
    secs: 1459170105
    nsecs: 723926395
  frame_id: ''
twist: 
  linear: 
    x: 0.795370697975
    y: -0.0
    z: 0.0
  angular: 
    x: 0.0
    y: 0.0
    z: 1.12529390674e-07
---
header: 
  seq: 185
  stamp: 
    secs: 1459170105
    nsecs: 723926395
  frame_id: ''
twist: 
  linear: 
    x: 0.795370697975
    y: -0.0
    z: 0.0
  angular: 
    x: 0.0
    y: 0.0
    z: 1.12529390674e-07
---
header: 
  seq: 186
  stamp: 
    secs: 1459170105
    nsecs: 723926395
  frame_id: ''
twist: 
  linear: 
    x: 0.799126267433
    y: -0.0
    z: 0.0
  angular: 
    x: 0.0
    y: 0.0
    z: 1.46313886227e-07
---
header: 
  seq: 187
  stamp: 
    secs: 1459170105
    nsecs: 723926395
  frame_id: ''
twist: 
  linear: 
    x: 0.799126267433
    y: -0.0
    z: 0.0
  angular: 
    x: 0.0
    y: 0.0
    z: 1.46313886227e-07
---
header: 
  seq: 188
  stamp: 
    secs: 1459170105
    nsecs: 723926395
  frame_id: ''
twist: 
  linear: 
    x: 0.799126267433
    y: -0.0
    z: 0.0
  angular: 
    x: 0.0
    y: 0.0
    z: 1.46313886227e-07
---
header: 
  seq: 189
  stamp: 
    secs: 1459170105
    nsecs: 723926395
  frame_id: ''
twist: 
  linear: 
    x: 0.799126267433
    y: -0.0
    z: 0.0
  angular: 
    x: 0.0
    y: 0.0
    z: 1.46313886227e-07
---
header: 
  seq: 190
  stamp: 
    secs: 1459170105
    nsecs: 723926395
  frame_id: ''
twist: 
  linear: 
    x: 0.799126267433
    y: -0.0
    z: 0.0
  angular: 
    x: 0.0
    y: 0.0
    z: 1.46313886227e-07
---
header: 
  seq: 191
  stamp: 
    secs: 1459170105
    nsecs: 723926395
  frame_id: ''
twist: 
  linear: 
    x: 0.799126267433
    y: -0.0
    z: 0.0
  angular: 
    x: 0.0
    y: 0.0
    z: 1.46313886227e-07
---
header: 
  seq: 192
  stamp: 
    secs: 1459170105
    nsecs: 723926395
  frame_id: ''
twist: 
  linear: 
    x: 0.798746109009
    y: -0.0
    z: 0.0
  angular: 
    x: 0.0
    y: 0.0
    z: -7.31221410688e-08
---
header: 
  seq: 193
  stamp: 
    secs: 1459170105
    nsecs: 723926395
  frame_id: ''
twist: 
  linear: 
    x: 0.799104869366
    y: -0.0
    z: 0.0
  angular: 
    x: 0.0
    y: 0.0
    z: -1.72911780843e-07
---
header: 
  seq: 194
  stamp: 
    secs: 1459170105
    nsecs: 723926395
  frame_id: ''
twist: 
  linear: 
    x: 0.799104869366
    y: -0.0
    z: 0.0
  angular: 
    x: 0.0
    y: 0.0
    z: -1.72911780843e-07
---
header: 
  seq: 195
  stamp: 
    secs: 1459170105
    nsecs: 723926395
  frame_id: ''
twist: 
  linear: 
    x: 0.799104869366
    y: -0.0
    z: 0.0
  angular: 
    x: 0.0
    y: 0.0
    z: -1.72911780843e-07
---
header: 
  seq: 196
  stamp: 
    secs: 1459170105
    nsecs: 723926395
  frame_id: ''
twist: 
  linear: 
    x: 0.799822330475
    y: -0.0
    z: 0.0
  angular: 
    x: 0.0
    y: 0.0
    z: -4.65949686452e-08
---
header: 
  seq: 197
  stamp: 
    secs: 1459170105
    nsecs: 723926395
  frame_id: ''
twist: 
  linear: 
    x: 0.799822330475
    y: -0.0
    z: 0.0
  angular: 
    x: 0.0
    y: 0.0
    z: -4.65949686452e-08
---
header: 
  seq: 198
  stamp: 
    secs: 1459170105
    nsecs: 723926395
  frame_id: ''
twist: 
  linear: 
    x: 0.803266465664
    y: -0.0
    z: 0.0
  angular: 
    x: 0.0
    y: 0.0
    z: 1.27016662282e-07
---
header: 
  seq: 199
  stamp: 
    secs: 1459170105
    nsecs: 723926395
  frame_id: ''
twist: 
  linear: 
    x: 0.803499758244
    y: -0.0
    z: 0.0
  angular: 
    x: 0.0
    y: 0.0
    z: -1.53801667866e-07
---
header: 
  seq: 200
  stamp: 
    secs: 1459170105
    nsecs: 723926395
  frame_id: ''
twist: 
  linear: 
    x: 0.807289302349
    y: -0.0
    z: 0.0
  angular: 
    x: 0.0
    y: 0.0
    z: 1.34371341153e-08
---
header: 
  seq: 201
  stamp: 
    secs: 1459170105
    nsecs: 723926395
  frame_id: ''
twist: 
  linear: 
    x: 0.807244539261
    y: -0.0
    z: 0.0
  angular: 
    x: 0.0
    y: 0.0
    z: -6.71819452231e-08
---
header: 
  seq: 202
  stamp: 
    secs: 1459170105
    nsecs: 723926395
  frame_id: ''
twist: 
  linear: 
    x: 0.807244539261
    y: -0.0
    z: 0.0
  angular: 
    x: 0.0
    y: 0.0
    z: -6.71819452231e-08
---
header: 
  seq: 203
  stamp: 
    secs: 1459170105
    nsecs: 723926395
  frame_id: ''
twist: 
  linear: 
    x: 0.807244539261
    y: -0.0
    z: 0.0
  angular: 
    x: 0.0
    y: 0.0
    z: -6.71819452231e-08
---
header: 
  seq: 204
  stamp: 
    secs: 1459170105
    nsecs: 723926395
  frame_id: ''
twist: 
  linear: 
    x: 0.807244539261
    y: -0.0
    z: 0.0
  angular: 
    x: 0.0
    y: 0.0
    z: -6.71819452231e-08
---
header: 
  seq: 205
  stamp: 
    secs: 1459170105
    nsecs: 723926395
  frame_id: ''
twist: 
  linear: 
    x: 0.807244539261
    y: -0.0
    z: 0.0
  angular: 
    x: 0.0
    y: 0.0
    z: -6.71819452231e-08
---
header: 
  seq: 206
  stamp: 
    secs: 1459170105
    nsecs: 723926395
  frame_id: ''
twist: 
  linear: 
    x: 0.807244539261
    y: -0.0
    z: 0.0
  angular: 
    x: 0.0
    y: 0.0
    z: -6.71819452231e-08
---
header: 
  seq: 207
  stamp: 
    secs: 1459170105
    nsecs: 723926395
  frame_id: ''
twist: 
  linear: 
    x: 0.807244539261
    y: -0.0
    z: 0.0
  angular: 
    x: 0.0
    y: 0.0
    z: -6.71819452231e-08
---
header: 
  seq: 208
  stamp: 
    secs: 1459170105
    nsecs: 723926395
  frame_id: ''
twist: 
  linear: 
    x: 0.807244539261
    y: -0.0
    z: 0.0
  angular: 
    x: 0.0
    y: 0.0
    z: -6.71819452231e-08
---
header: 
  seq: 209
  stamp: 
    secs: 1459170105
    nsecs: 723926395
  frame_id: ''
twist: 
  linear: 
    x: 0.807604968548
    y: -0.0
    z: 0.0
  angular: 
    x: 0.0
    y: 0.0
    z: -1.47866271327e-07
---
header: 
  seq: 210
  stamp: 
    secs: 1459170105
    nsecs: 723926395
  frame_id: ''
twist: 
  linear: 
    x: 0.812563598156
    y: -0.0
    z: 0.0
  angular: 
    x: 0.0
    y: 0.0
    z: 1.6906154358e-07
---
header: 
  seq: 211
  stamp: 
    secs: 1459170105
    nsecs: 723926395
  frame_id: ''
twist: 
  linear: 
    x: 0.813790261745
    y: -0.0
    z: 0.0
  angular: 
    x: 0.0
    y: 0.0
    z: 1.8963477405e-07
---
header: 
  seq: 212
  stamp: 
    secs: 1459170105
    nsecs: 723926395
  frame_id: ''
twist: 
  linear: 
    x: 0.812123298645
    y: -0.0
    z: 0.0
  angular: 
    x: 0.0
    y: 0.0
    z: 1.01381961061e-07
---
header: 
  seq: 213
  stamp: 
    secs: 1459170105
    nsecs: 723926395
  frame_id: ''
twist: 
  linear: 
    x: 0.817877054214
    y: -0.0
    z: 0.0
  angular: 
    x: 0.0
    y: 0.0
    z: -1.9739378772e-07
---
header: 
  seq: 214
  stamp: 
    secs: 1459170105
    nsecs: 723926395
  frame_id: ''
twist: 
  linear: 
    x: 0.815048396587
    y: -0.0
    z: 0.0
  angular: 
    x: 0.0
    y: 0.0
    z: 1.56012247048e-07
---
header: 
  seq: 215
  stamp: 
    secs: 1459170105
    nsecs: 723926395
  frame_id: ''
twist: 
  linear: 
    x: 0.81344306469
    y: -0.0
    z: 0.0
  angular: 
    x: 0.0
    y: 0.0
    z: 1.21856057937e-07
---
header: 
  seq: 216
  stamp: 
    secs: 1459170105
    nsecs: 723926395
  frame_id: ''
twist: 
  linear: 
    x: 0.815117716789
    y: -0.0
    z: 0.0
  angular: 
    x: 0.0
    y: 0.0
    z: 2.03511542549e-07
---
header: 
  seq: 217
  stamp: 
    secs: 1459170105
    nsecs: 723926395
  frame_id: ''
twist: 
  linear: 
    x: 0.816431581974
    y: -0.0
    z: 0.0
  angular: 
    x: 0.0
    y: 0.0
    z: -2.03839577046e-07
---
header: 
  seq: 218
  stamp: 
    secs: 1459170105
    nsecs: 723926395
  frame_id: ''
twist: 
  linear: 
    x: 0.815980792046
    y: -0.0
    z: 0.0
  angular: 
    x: 0.0
    y: 0.0
    z: -1.90145225867e-07
---
header: 
  seq: 219
  stamp: 
    secs: 1459170105
    nsecs: 723926395
  frame_id: ''
twist: 
  linear: 
    x: 0.815542817116
    y: -0.0
    z: 0.0
  angular: 
    x: 0.0
    y: 0.0
    z: -2.7149023723e-08
---
header: 
  seq: 220
  stamp: 
    secs: 1459170105
    nsecs: 723926395
  frame_id: ''
twist: 
  linear: 
    x: 0.811733007431
    y: -0.0
    z: 0.0
  angular: 
    x: 0.0
    y: 0.0
    z: 1.89155379081e-07
---
header: 
  seq: 221
  stamp: 
    secs: 1459170105
    nsecs: 723926395
  frame_id: ''
twist: 
  linear: 
    x: 0.811298370361
    y: -0.0
    z: 0.0
  angular: 
    x: 0.0
    y: 0.0
    z: 2.093098932e-07
---
header: 
  seq: 222
  stamp: 
    secs: 1459170105
    nsecs: 723926395
  frame_id: ''
twist: 
  linear: 
    x: 0.811298370361
    y: -0.0
    z: 0.0
  angular: 
    x: 0.0
    y: 0.0
    z: 2.093098932e-07
---
header: 
  seq: 223
  stamp: 
    secs: 1459170105
    nsecs: 723926395
  frame_id: ''
twist: 
  linear: 
    x: 0.810931742191
    y: -0.0
    z: 0.0
  angular: 
    x: 0.0
    y: 0.0
    z: 4.04932849221e-08
---
header: 
  seq: 224
  stamp: 
    secs: 1459170105
    nsecs: 723926395
  frame_id: ''
twist: 
  linear: 
    x: 0.810931742191
    y: -0.0
    z: 0.0
  angular: 
    x: 0.0
    y: 0.0
    z: 4.04932849221e-08
---
header: 
  seq: 225
  stamp: 
    secs: 1459170105
    nsecs: 723926395
  frame_id: ''
twist: 
  linear: 
    x: 0.810931742191
    y: -0.0
    z: 0.0
  angular: 
    x: 0.0
    y: 0.0
    z: 4.04932849221e-08
---
header: 
  seq: 226
  stamp: 
    secs: 1459170105
    nsecs: 723926395
  frame_id: ''
twist: 
  linear: 
    x: 0.810931742191
    y: -0.0
    z: 0.0
  angular: 
    x: 0.0
    y: 0.0
    z: 4.04932849221e-08
---
header: 
  seq: 227
  stamp: 
    secs: 1459170105
    nsecs: 723926395
  frame_id: ''
twist: 
  linear: 
    x: 0.810931742191
    y: -0.0
    z: 0.0
  angular: 
    x: 0.0
    y: 0.0
    z: 4.04932849221e-08
---
header: 
  seq: 228
  stamp: 
    secs: 1459170105
    nsecs: 723926395
  frame_id: ''
twist: 
  linear: 
    x: 0.810931742191
    y: -0.0
    z: 0.0
  angular: 
    x: 0.0
    y: 0.0
    z: 4.04932849221e-08
---
header: 
  seq: 229
  stamp: 
    secs: 1459170105
    nsecs: 723926395
  frame_id: ''
twist: 
  linear: 
    x: 0.810562372208
    y: -0.0
    z: 0.0
  angular: 
    x: 0.0
    y: 0.0
    z: -5.39664542686e-08
---
header: 
  seq: 230
  stamp: 
    secs: 1459170105
    nsecs: 723926395
  frame_id: ''
twist: 
  linear: 
    x: 0.810141026974
    y: -0.0
    z: 0.0
  angular: 
    x: 0.0
    y: 0.0
    z: -1.88784405295e-07
---
header: 
  seq: 231
  stamp: 
    secs: 1459170105
    nsecs: 723926395
  frame_id: ''
twist: 
  linear: 
    x: 0.810141026974
    y: -0.0
    z: 0.0
  angular: 
    x: 0.0
    y: 0.0
    z: -1.88784405295e-07
---
header: 
  seq: 232
  stamp: 
    secs: 1459170105
    nsecs: 723926395
  frame_id: ''
twist: 
  linear: 
    x: 0.810141026974
    y: -0.0
    z: 0.0
  angular: 
    x: 0.0
    y: 0.0
    z: -1.88784405295e-07
---
header: 
  seq: 233
  stamp: 
    secs: 1459170105
    nsecs: 723926395
  frame_id: ''
twist: 
  linear: 
    x: 0.810141026974
    y: -0.0
    z: 0.0
  angular: 
    x: 0.0
    y: 0.0
    z: -1.88784405295e-07
---
header: 
  seq: 234
  stamp: 
    secs: 1459170105
    nsecs: 723926395
  frame_id: ''
twist: 
  linear: 
    x: 0.810141026974
    y: -0.0
    z: 0.0
  angular: 
    x: 0.0
    y: 0.0
    z: -1.88784405295e-07
---
header: 
  seq: 235
  stamp: 
    secs: 1459170105
    nsecs: 723926395
  frame_id: ''
twist: 
  linear: 
    x: 0.810141026974
    y: -0.0
    z: 0.0
  angular: 
    x: 0.0
    y: 0.0
    z: -1.88784405295e-07
---
header: 
  seq: 236
  stamp: 
    secs: 1459170105
    nsecs: 723926395
  frame_id: ''
twist: 
  linear: 
    x: 0.810141026974
    y: -0.0
    z: 0.0
  angular: 
    x: 0.0
    y: 0.0
    z: -1.88784405295e-07
---
header: 
  seq: 237
  stamp: 
    secs: 1459170105
    nsecs: 723926395
  frame_id: ''
twist: 
  linear: 
    x: 0.810141026974
    y: -0.0
    z: 0.0
  angular: 
    x: 0.0
    y: 0.0
    z: -1.88784405295e-07
---
header: 
  seq: 238
  stamp: 
    secs: 1459170105
    nsecs: 723926395
  frame_id: ''
twist: 
  linear: 
    x: 0.810141026974
    y: -0.0
    z: 0.0
  angular: 
    x: 0.0
    y: 0.0
    z: -1.88784405295e-07
---
header: 
  seq: 239
  stamp: 
    secs: 1459170105
    nsecs: 723926395
  frame_id: ''
twist: 
  linear: 
    x: 0.810141026974
    y: -0.0
    z: 0.0
  angular: 
    x: 0.0
    y: 0.0
    z: -1.88784405295e-07
---
header: 
  seq: 240
  stamp: 
    secs: 1459170105
    nsecs: 723926395
  frame_id: ''
twist: 
  linear: 
    x: 0.810141026974
    y: -0.0
    z: 0.0
  angular: 
    x: 0.0
    y: 0.0
    z: -1.88784405295e-07
---
header: 
  seq: 241
  stamp: 
    secs: 1459170105
    nsecs: 723926395
  frame_id: ''
twist: 
  linear: 
    x: 0.810141026974
    y: -0.0
    z: 0.0
  angular: 
    x: 0.0
    y: 0.0
    z: -1.88784405295e-07
---
header: 
  seq: 242
  stamp: 
    secs: 1459170105
    nsecs: 723926395
  frame_id: ''
twist: 
  linear: 
    x: 0.810141026974
    y: -0.0
    z: 0.0
  angular: 
    x: 0.0
    y: 0.0
    z: -1.88784405295e-07
---
header: 
  seq: 243
  stamp: 
    secs: 1459170105
    nsecs: 723926395
  frame_id: ''
twist: 
  linear: 
    x: 0.810141026974
    y: -0.0
    z: 0.0
  angular: 
    x: 0.0
    y: 0.0
    z: -1.88784405295e-07
---
header: 
  seq: 244
  stamp: 
    secs: 1459170105
    nsecs: 723926395
  frame_id: ''
twist: 
  linear: 
    x: 0.810141026974
    y: -0.0
    z: 0.0
  angular: 
    x: 0.0
    y: 0.0
    z: -1.88784405295e-07
---
header: 
  seq: 245
  stamp: 
    secs: 1459170105
    nsecs: 723926395
  frame_id: ''
twist: 
  linear: 
    x: 0.810141026974
    y: -0.0
    z: 0.0
  angular: 
    x: 0.0
    y: 0.0
    z: -1.88784405295e-07
---
header: 
  seq: 246
  stamp: 
    secs: 1459170105
    nsecs: 723926395
  frame_id: ''
twist: 
  linear: 
    x: 0.810141026974
    y: -0.0
    z: 0.0
  angular: 
    x: 0.0
    y: 0.0
    z: -1.88784405295e-07
---
header: 
  seq: 247
  stamp: 
    secs: 1459170105
    nsecs: 723926395
  frame_id: ''
twist: 
  linear: 
    x: 0.810141026974
    y: -0.0
    z: 0.0
  angular: 
    x: 0.0
    y: 0.0
    z: -1.88784405295e-07
---
header: 
  seq: 248
  stamp: 
    secs: 1459170105
    nsecs: 723926395
  frame_id: ''
twist: 
  linear: 
    x: 0.810141026974
    y: -0.0
    z: 0.0
  angular: 
    x: 0.0
    y: 0.0
    z: -1.88784405295e-07
---
header: 
  seq: 249
  stamp: 
    secs: 1459170105
    nsecs: 723926395
  frame_id: ''
twist: 
  linear: 
    x: 0.810141026974
    y: -0.0
    z: 0.0
  angular: 
    x: 0.0
    y: 0.0
    z: -1.88784405295e-07
---
header: 
  seq: 250
  stamp: 
    secs: 1459170105
    nsecs: 723926395
  frame_id: ''
twist: 
  linear: 
    x: 0.813563227654
    y: -0.0
    z: 0.0
  angular: 
    x: 0.0
    y: 0.0
    z: -1.35415620763e-08
---
header: 
  seq: 251
  stamp: 
    secs: 1459170105
    nsecs: 723926395
  frame_id: ''
twist: 
  linear: 
    x: 0.813563227654
    y: -0.0
    z: 0.0
  angular: 
    x: 0.0
    y: 0.0
    z: -1.35415620763e-08
---
header: 
  seq: 252
  stamp: 
    secs: 1459170105
    nsecs: 723926395
  frame_id: ''
twist: 
  linear: 
    x: 0.813563227654
    y: -0.0
    z: 0.0
  angular: 
    x: 0.0
    y: 0.0
    z: -1.35415620763e-08
---
header: 
  seq: 253
  stamp: 
    secs: 1459170105
    nsecs: 723926395
  frame_id: ''
twist: 
  linear: 
    x: 0.813563227654
    y: -0.0
    z: 0.0
  angular: 
    x: 0.0
    y: 0.0
    z: -1.35415620763e-08
---
header: 
  seq: 254
  stamp: 
    secs: 1459170105
    nsecs: 723926395
  frame_id: ''
twist: 
  linear: 
    x: 0.813563227654
    y: -0.0
    z: 0.0
  angular: 
    x: 0.0
    y: 0.0
    z: -1.35415620763e-08
---
header: 
  seq: 255
  stamp: 
    secs: 1459170105
    nsecs: 723926395
  frame_id: ''
twist: 
  linear: 
    x: 0.813563227654
    y: -0.0
    z: 0.0
  angular: 
    x: 0.0
    y: 0.0
    z: -1.35415620763e-08
---
header: 
  seq: 256
  stamp: 
    secs: 1459170105
    nsecs: 723926395
  frame_id: ''
twist: 
  linear: 
    x: 0.813563227654
    y: -0.0
    z: 0.0
  angular: 
    x: 0.0
    y: 0.0
    z: -1.35415620763e-08
---
header: 
  seq: 257
  stamp: 
    secs: 1459170105
    nsecs: 723926395
  frame_id: ''
twist: 
  linear: 
    x: 0.813563227654
    y: -0.0
    z: 0.0
  angular: 
    x: 0.0
    y: 0.0
    z: -1.35415620763e-08
---
header: 
  seq: 258
  stamp: 
    secs: 1459170105
    nsecs: 723926395
  frame_id: ''
twist: 
  linear: 
    x: 0.813563227654
    y: -0.0
    z: 0.0
  angular: 
    x: 0.0
    y: 0.0
    z: -1.35415620763e-08
---
header: 
  seq: 259
  stamp: 
    secs: 1459170105
    nsecs: 723926395
  frame_id: ''
twist: 
  linear: 
    x: 0.813563227654
    y: -0.0
    z: 0.0
  angular: 
    x: 0.0
    y: 0.0
    z: -1.35415620763e-08
---
header: 
  seq: 260
  stamp: 
    secs: 1459170105
    nsecs: 723926395
  frame_id: ''
twist: 
  linear: 
    x: 0.813563227654
    y: -0.0
    z: 0.0
  angular: 
    x: 0.0
    y: 0.0
    z: -1.35415620763e-08
---
header: 
  seq: 261
  stamp: 
    secs: 1459170105
    nsecs: 723926395
  frame_id: ''
twist: 
  linear: 
    x: 0.813563227654
    y: -0.0
    z: 0.0
  angular: 
    x: 0.0
    y: 0.0
    z: -1.35415620763e-08
---
header: 
  seq: 262
  stamp: 
    secs: 1459170105
    nsecs: 723926395
  frame_id: ''
twist: 
  linear: 
    x: 0.813563227654
    y: -0.0
    z: 0.0
  angular: 
    x: 0.0
    y: 0.0
    z: -1.35415620763e-08
---
header: 
  seq: 263
  stamp: 
    secs: 1459170105
    nsecs: 723926395
  frame_id: ''
twist: 
  linear: 
    x: 0.813563227654
    y: -0.0
    z: 0.0
  angular: 
    x: 0.0
    y: 0.0
    z: -1.35415620763e-08
---
header: 
  seq: 264
  stamp: 
    secs: 1459170105
    nsecs: 723926395
  frame_id: ''
twist: 
  linear: 
    x: 0.813563227654
    y: -0.0
    z: 0.0
  angular: 
    x: 0.0
    y: 0.0
    z: -1.35415620763e-08
---
header: 
  seq: 265
  stamp: 
    secs: 1459170105
    nsecs: 723926395
  frame_id: ''
twist: 
  linear: 
    x: 0.813563227654
    y: -0.0
    z: 0.0
  angular: 
    x: 0.0
    y: 0.0
    z: -1.35415620763e-08
---
header: 
  seq: 266
  stamp: 
    secs: 1459170105
    nsecs: 723926395
  frame_id: ''
twist: 
  linear: 
    x: 0.813563227654
    y: -0.0
    z: 0.0
  angular: 
    x: 0.0
    y: 0.0
    z: -1.35415620763e-08
---
header: 
  seq: 267
  stamp: 
    secs: 1459170105
    nsecs: 723926395
  frame_id: ''
twist: 
  linear: 
    x: 0.813183784485
    y: -0.0
    z: 0.0
  angular: 
    x: 0.0
    y: 0.0
    z: -6.09086085166e-08
---
header: 
  seq: 268
  stamp: 
    secs: 1459170105
    nsecs: 723926395
  frame_id: ''
twist: 
  linear: 
    x: 0.813183784485
    y: -0.0
    z: 0.0
  angular: 
    x: 0.0
    y: 0.0
    z: -6.09086085166e-08
---
header: 
  seq: 269
  stamp: 
    secs: 1459170105
    nsecs: 723926395
  frame_id: ''
twist: 
  linear: 
    x: 0.813183784485
    y: -0.0
    z: 0.0
  angular: 
    x: 0.0
    y: 0.0
    z: -6.09086085166e-08
---
header: 
  seq: 270
  stamp: 
    secs: 1459170105
    nsecs: 723926395
  frame_id: ''
twist: 
  linear: 
    x: 0.813183784485
    y: -0.0
    z: 0.0
  angular: 
    x: 0.0
    y: 0.0
    z: -6.09086085166e-08
---
header: 
  seq: 271
  stamp: 
    secs: 1459170105
    nsecs: 723926395
  frame_id: ''
twist: 
  linear: 
    x: 0.813183784485
    y: -0.0
    z: 0.0
  angular: 
    x: 0.0
    y: 0.0
    z: -6.09086085166e-08
---
header: 
  seq: 272
  stamp: 
    secs: 1459170105
    nsecs: 723926395
  frame_id: ''
twist: 
  linear: 
    x: 0.813183784485
    y: -0.0
    z: 0.0
  angular: 
    x: 0.0
    y: 0.0
    z: -6.09086085166e-08
---
header: 
  seq: 273
  stamp: 
    secs: 1459170105
    nsecs: 723926395
  frame_id: ''
twist: 
  linear: 
    x: 0.813183784485
    y: -0.0
    z: 0.0
  angular: 
    x: 0.0
    y: 0.0
    z: -6.09086085166e-08
---
header: 
  seq: 274
  stamp: 
    secs: 1459170105
    nsecs: 723926395
  frame_id: ''
twist: 
  linear: 
    x: 0.809778749943
    y: -0.0
    z: 0.0
  angular: 
    x: 0.0
    y: 0.0
    z: -1.68482129564e-07
---
header: 
  seq: 275
  stamp: 
    secs: 1459170105
    nsecs: 723926395
  frame_id: ''
twist: 
  linear: 
    x: 0.809778749943
    y: -0.0
    z: 0.0
  angular: 
    x: 0.0
    y: 0.0
    z: -1.68482129564e-07
---
header: 
  seq: 276
  stamp: 
    secs: 1459170105
    nsecs: 723926395
  frame_id: ''
twist: 
  linear: 
    x: 0.809778749943
    y: -0.0
    z: 0.0
  angular: 
    x: 0.0
    y: 0.0
    z: -1.68482129564e-07
---
header: 
  seq: 277
  stamp: 
    secs: 1459170105
    nsecs: 723926395
  frame_id: ''
twist: 
  linear: 
    x: 0.809778749943
    y: -0.0
    z: 0.0
  angular: 
    x: 0.0
    y: 0.0
    z: -1.68482129564e-07
---
header: 
  seq: 278
  stamp: 
    secs: 1459170105
    nsecs: 723926395
  frame_id: ''
twist: 
  linear: 
    x: 0.809471666813
    y: -0.0
    z: 0.0
  angular: 
    x: 0.0
    y: 0.0
    z: -1.75154967534e-07
---
header: 
  seq: 279
  stamp: 
    secs: 1459170105
    nsecs: 723926395
  frame_id: ''
twist: 
  linear: 
    x: 0.809471666813
    y: -0.0
    z: 0.0
  angular: 
    x: 0.0
    y: 0.0
    z: -1.75154967534e-07
---
header: 
  seq: 280
  stamp: 
    secs: 1459170105
    nsecs: 723926395
  frame_id: ''
twist: 
  linear: 
    x: 0.809471666813
    y: -0.0
    z: 0.0
  angular: 
    x: 0.0
    y: 0.0
    z: -1.75154967534e-07
---
header: 
  seq: 281
  stamp: 
    secs: 1459170105
    nsecs: 723926395
  frame_id: ''
twist: 
  linear: 
    x: 0.809471666813
