header: 
  seq: 0
  stamp: 
    secs: 1459170094
    nsecs: 102710339
  frame_id: odom
child_frame_id: base_link
pose: 
  pose: 
    position: 
      x: 0.0
      y: 0.0
      z: 0.0
    orientation: 
      x: 0.0
      y: 0.0
      z: 0.0
      w: 1.0
  covariance: [0.0, 0.0, 0.0, 0.0, 0.0, 0.0, 0.0, 0.0, 0.0, 0.0, 0.0, 0.0, 0.0, 0.0, 0.0, 0.0, 0.0, 0.0, 0.0, 0.0, 0.0, 0.0, 0.0, 0.0, 0.0, 0.0, 0.0, 0.0, 0.0, 0.0, 0.0, 0.0, 0.0, 0.0, 0.0, 0.0]
twist: 
  twist: 
    linear: 
      x: 0.0
      y: 0.0
      z: 0.0
    angular: 
      x: 0.0
      y: 0.0
      z: 0.0
  covariance: [0.0, 0.0, 0.0, 0.0, 0.0, 0.0, 0.0, 0.0, 0.0, 0.0, 0.0, 0.0, 0.0, 0.0, 0.0, 0.0, 0.0, 0.0, 0.0, 0.0, 0.0, 0.0, 0.0, 0.0, 0.0, 0.0, 0.0, 0.0, 0.0, 0.0, 0.0, 0.0, 0.0, 0.0, 0.0, 0.0]
---
header: 
  seq: 1
  stamp: 
    secs: 1459170094
    nsecs: 169382173
  frame_id: odom
child_frame_id: base_link
pose: 
  pose: 
    position: 
      x: -0.00446538973764
      y: -0.00491556617085
      z: 0.0416098662809
    orientation: 
      x: 0.00113591950916
      y: -0.00045089916954
      z: -0.000287808177951
      w: 0.999999211771
  covariance: [0.1, 0.0, 0.0, 0.0, 0.0, 0.0, 0.0, 0.1, 0.0, 0.0, 0.0, 0.0, 0.0, 0.0, 0.1, 0.0, 0.0, 0.0, 0.0, 0.0, 0.0, 0.17, 0.0, 0.0, 0.0, 0.0, 0.0, 0.0, 0.17, 0.0, 0.0, 0.0, 0.0, 0.0, 0.0, 0.17]
twist: 
  twist: 
    linear: 
      x: -0.0669756547816
      y: -0.0737277779228
      z: 0.624099620252
    angular: 
      x: 0.0340749530787
      y: -0.0135259302454
      z: -0.00863357841838
  covariance: [0.002, 0.0, 0.0, 0.0, 0.0, 0.0, 0.0, 0.002, 0.0, 0.0, 0.0, 0.0, 0.0, 0.0, 0.05, 0.0, 0.0, 0.0, 0.0, 0.0, 0.0, 0.09, 0.0, 0.0, 0.0, 0.0, 0.0, 0.0, 0.09, 0.0, 0.0, 0.0, 0.0, 0.0, 0.0, 0.09]
---
header: 
  seq: 2
  stamp: 
    secs: 1459170094
    nsecs: 436055556
  frame_id: odom
child_frame_id: base_link
pose: 
  pose: 
    position: 
      x: -0.0388035016721
      y: 0.00500525506487
      z: 0.149984434601
    orientation: 
      x: 0.00130353575224
      y: 0.00212023253544
      z: -0.00125472997473
      w: 0.999996115523
  covariance: [0.1, 0.0, 0.0, 0.0, 0.0, 0.0, 0.0, 0.1, 0.0, 0.0, 0.0, 0.0, 0.0, 0.0, 0.1, 0.0, 0.0, 0.0, 0.0, 0.0, 0.0, 0.17, 0.0, 0.0, 0.0, 0.0, 0.0, 0.0, 0.17, 0.0, 0.0, 0.0, 0.0, 0.0, 0.0, 0.17]
twist: 
  twist: 
    linear: 
      x: -0.128419835438
      y: 0.0380514207854
      z: 0.406424877964
    angular: 
      x: 0.00124829751894
      y: 0.0192751252001
      z: -0.00727421174055
  covariance: [0.002, 0.0, 0.0, 0.0, 0.0, 0.0, 0.0, 0.002, 0.0, 0.0, 0.0, 0.0, 0.0, 0.0, 0.05, 0.0, 0.0, 0.0, 0.0, 0.0, 0.0, 0.09, 0.0, 0.0, 0.0, 0.0, 0.0, 0.0, 0.09, 0.0, 0.0, 0.0, 0.0, 0.0, 0.0, 0.09]
---
header: 
  seq: 3
  stamp: 
    secs: 1459170094
    nsecs: 702714115
  frame_id: odom
child_frame_id: base_link
pose: 
  pose: 
    position: 
      x: -0.0378269365155
      y: 0.000530879600329
      z: 0.343631867528
    orientation: 
      x: 0.00180780075354
      y: 0.00151535077542
      z: 0.00152882289366
      w: 0.999996049127
  covariance: [0.1, 0.0, 0.0, 0.0, 0.0, 0.0, 0.0, 0.1, 0.0, 0.0, 0.0, 0.0, 0.0, 0.0, 0.1, 0.0, 0.0, 0.0, 0.0, 0.0, 0.0, 0.17, 0.0, 0.0, 0.0, 0.0, 0.0, 0.0, 0.17, 0.0, 0.0, 0.0, 0.0, 0.0, 0.0, 0.17]
twist: 
  twist: 
    linear: 
      x: 0.000622411493564
      y: -0.0148807138624
      z: 0.726250307427
    angular: 
      x: 0.00374352138529
      y: -0.00450477893864
      z: 0.0208911614298
  covariance: [0.002, 0.0, 0.0, 0.0, 0.0, 0.0, 0.0, 0.002, 0.0, 0.0, 0.0, 0.0, 0.0, 0.0, 0.05, 0.0, 0.0, 0.0, 0.0, 0.0, 0.0, 0.09, 0.0, 0.0, 0.0, 0.0, 0.0, 0.0, 0.09, 0.0, 0.0, 0.0, 0.0, 0.0, 0.0, 0.09]
---
header: 
  seq: 4
  stamp: 
    secs: 1459170094
    nsecs: 969376019
  frame_id: odom
child_frame_id: base_link
pose: 
  pose: 
    position: 
      x: -0.0703755756901
      y: 0.00247067881983
      z: 0.446676847071
    orientation: 
      x: 0.00453690239683
      y: 0.00347232040886
      z: 0.00223970985125
      w: 0.999981171426
  covariance: [0.1, 0.0, 0.0, 0.0, 0.0, 0.0, 0.0, 0.1, 0.0, 0.0, 0.0, 0.0, 0.0, 0.0, 0.1, 0.0, 0.0, 0.0, 0.0, 0.0, 0.0, 0.17, 0.0, 0.0, 0.0, 0.0, 0.0, 0.0, 0.17, 0.0, 0.0, 0.0, 0.0, 0.0, 0.0, 0.17]
twist: 
  twist: 
    linear: 
      x: -0.123205163456
      y: 0.00904578600242
      z: 0.386024407545
    angular: 
      x: 0.020483148858
      y: 0.0146560201053
      z: 0.00533639050864
  covariance: [0.002, 0.0, 0.0, 0.0, 0.0, 0.0, 0.0, 0.002, 0.0, 0.0, 0.0, 0.0, 0.0, 0.0, 0.05, 0.0, 0.0, 0.0, 0.0, 0.0, 0.0, 0.09, 0.0, 0.0, 0.0, 0.0, 0.0, 0.0, 0.09, 0.0, 0.0, 0.0, 0.0, 0.0, 0.0, 0.09]
---
header: 
  seq: 5
  stamp: 
    secs: 1459170095
    nsecs: 236007881
  frame_id: odom
child_frame_id: base_link
pose: 
  pose: 
    position: 
      x: -0.0654820988268
      y: 0.0129768351666
      z: 0.600331293303
    orientation: 
      x: 0.00410842592107
      y: 0.002132947492
      z: 0.00119786603199
      w: 0.999988568179
  covariance: [0.1, 0.0, 0.0, 0.0, 0.0, 0.0, 0.0, 0.1, 0.0, 0.0, 0.0, 0.0, 0.0, 0.0, 0.1, 0.0, 0.0, 0.0, 0.0, 0.0, 0.0, 0.17, 0.0, 0.0, 0.0, 0.0, 0.0, 0.0, 0.17, 0.0, 0.0, 0.0, 0.0, 0.0, 0.0, 0.17]
twist: 
  twist: 
    linear: 
      x: 0.0145397822275
      y: 0.0445574926426
      z: 0.576012675341
    angular: 
      x: -0.00320955172337
      y: -0.0100748735623
      z: -0.00778040924709
  covariance: [0.002, 0.0, 0.0, 0.0, 0.0, 0.0, 0.0, 0.002, 0.0, 0.0, 0.0, 0.0, 0.0, 0.0, 0.05, 0.0, 0.0, 0.0, 0.0, 0.0, 0.0, 0.09, 0.0, 0.0, 0.0, 0.0, 0.0, 0.0, 0.09, 0.0, 0.0, 0.0, 0.0, 0.0, 0.0, 0.09]
---
header: 
  seq: 6
  stamp: 
    secs: 1459170095
    nsecs: 502690163
  frame_id: odom
child_frame_id: base_link
pose: 
  pose: 
    position: 
      x: -0.0765625765583
      y: 0.0148914256682
      z: 0.739815923039
    orientation: 
      x: 6.03721819139e-05
      y: 0.00114327378492
      z: -0.000801369675547
      w: 0.999999023543
  covariance: [0.1, 0.0, 0.0, 0.0, 0.0, 0.0, 0.0, 0.1, 0.0, 0.0, 0.0, 0.0, 0.0, 0.0, 0.1, 0.0, 0.0, 0.0, 0.0, 0.0, 0.0, 0.17, 0.0, 0.0, 0.0, 0.0, 0.0, 0.0, 0.17, 0.0, 0.0, 0.0, 0.0, 0.0, 0.0, 0.17]
twist: 
  twist: 
    linear: 
      x: -0.0437575820668
      y: 0.0115781817306
      z: 0.522777711902
    angular: 
      x: -0.0303356190097
      y: -0.00744746076225
      z: -0.0150276259923
  covariance: [0.002, 0.0, 0.0, 0.0, 0.0, 0.0, 0.0, 0.002, 0.0, 0.0, 0.0, 0.0, 0.0, 0.0, 0.05, 0.0, 0.0, 0.0, 0.0, 0.0, 0.0, 0.09, 0.0, 0.0, 0.0, 0.0, 0.0, 0.0, 0.09, 0.0, 0.0, 0.0, 0.0, 0.0, 0.0, 0.09]
---
header: 
  seq: 7
  stamp: 
    secs: 1459170095
    nsecs: 769371834
  frame_id: odom
child_frame_id: base_link
pose: 
  pose: 
    position: 
      x: -0.0897119626746
      y: 0.0283753741228
      z: 0.881431317217
    orientation: 
      x: -0.00625240224235
      y: 0.00481653522425
      z: -0.000140695599113
      w: 0.999968843844
  covariance: [0.1, 0.0, 0.0, 0.0, 0.0, 0.0, 0.0, 0.1, 0.0, 0.0, 0.0, 0.0, 0.0, 0.0, 0.1, 0.0, 0.0, 0.0, 0.0, 0.0, 0.0, 0.17, 0.0, 0.0, 0.0, 0.0, 0.0, 0.0, 0.17, 0.0, 0.0, 0.0, 0.0, 0.0, 0.0, 0.17]
twist: 
  twist: 
    linear: 
      x: -0.0506025325874
      y: 0.0505460083032
      z: 0.53090752056
    angular: 
      x: -0.0473712498105
      y: 0.027510749006
      z: 0.00489884517827
  covariance: [0.002, 0.0, 0.0, 0.0, 0.0, 0.0, 0.0, 0.002, 0.0, 0.0, 0.0, 0.0, 0.0, 0.0, 0.05, 0.0, 0.0, 0.0, 0.0, 0.0, 0.0, 0.09, 0.0, 0.0, 0.0, 0.0, 0.0, 0.0, 0.09, 0.0, 0.0, 0.0, 0.0, 0.0, 0.0, 0.09]
---
header: 
  seq: 8
  stamp: 
    secs: 1459170096
    nsecs: 36041884
  frame_id: odom
child_frame_id: base_link
pose: 
  pose: 
    position: 
      x: -0.11213366237
      y: 0.0664425635219
      z: 1.00018435727
    orientation: 
      x: -0.0036406320453
      y: 0.00457463205349
      z: 5.73814006672e-05
      w: 0.999982907478
  covariance: [0.1, 0.0, 0.0, 0.0, 0.0, 0.0, 0.0, 0.1, 0.0, 0.0, 0.0, 0.0, 0.0, 0.0, 0.1, 0.0, 0.0, 0.0, 0.0, 0.0, 0.0, 0.17, 0.0, 0.0, 0.0, 0.0, 0.0, 0.0, 0.17, 0.0, 0.0, 0.0, 0.0, 0.0, 0.0, 0.17]
twist: 
  twist: 
    linear: 
      x: -0.0884140327443
      y: 0.137151340235
      z: 0.446237510511
    angular: 
      x: 0.0195811997379
      y: -0.00182123672691
      z: 0.00156853201597
  covariance: [0.002, 0.0, 0.0, 0.0, 0.0, 0.0, 0.0, 0.002, 0.0, 0.0, 0.0, 0.0, 0.0, 0.0, 0.05, 0.0, 0.0, 0.0, 0.0, 0.0, 0.0, 0.09, 0.0, 0.0, 0.0, 0.0, 0.0, 0.0, 0.09, 0.0, 0.0, 0.0, 0.0, 0.0, 0.0, 0.09]
---
header: 
  seq: 9
  stamp: 
    secs: 1459170096
    nsecs: 302710644
  frame_id: odom
child_frame_id: base_link
pose: 
  pose: 
    position: 
      x: -0.118822602241
      y: 0.0921019864524
      z: 1.13535781521
    orientation: 
      x: -0.00088425393778
      y: 0.00587641621072
      z: 0.00120088553246
      w: 0.999981621682
  covariance: [0.1, 0.0, 0.0, 0.0, 0.0, 0.0, 0.0, 0.1, 0.0, 0.0, 0.0, 0.0, 0.0, 0.0, 0.1, 0.0, 0.0, 0.0, 0.0, 0.0, 0.0, 0.17, 0.0, 0.0, 0.0, 0.0, 0.0, 0.0, 0.17, 0.0, 0.0, 0.0, 0.0, 0.0, 0.0, 0.17]
twist: 
  twist: 
    linear: 
      x: -0.0297123025029
      y: 0.0925327254144
      z: 0.507333012541
    angular: 
      x: 0.0206336487322
      y: 0.00973078989832
      z: 0.00870619748448
  covariance: [0.002, 0.0, 0.0, 0.0, 0.0, 0.0, 0.0, 0.002, 0.0, 0.0, 0.0, 0.0, 0.0, 0.0, 0.05, 0.0, 0.0, 0.0, 0.0, 0.0, 0.0, 0.09, 0.0, 0.0, 0.0, 0.0, 0.0, 0.0, 0.09, 0.0, 0.0, 0.0, 0.0, 0.0, 0.0, 0.09]
---
header: 
  seq: 10
  stamp: 
    secs: 1459170096
    nsecs: 569374686
  frame_id: odom
child_frame_id: base_link
pose: 
  pose: 
    position: 
      x: -0.127257893426
      y: 0.106846779786
      z: 1.25385810371
    orientation: 
      x: 0.00310825448022
      y: 0.00399176977285
      z: -0.00149620973812
      w: 0.999986082845
  covariance: [0.1, 0.0, 0.0, 0.0, 0.0, 0.0, 0.0, 0.1, 0.0, 0.0, 0.0, 0.0, 0.0, 0.0, 0.1, 0.0, 0.0, 0.0, 0.0, 0.0, 0.0, 0.17, 0.0, 0.0, 0.0, 0.0, 0.0, 0.0, 0.17, 0.0, 0.0, 0.0, 0.0, 0.0, 0.0, 0.17]
twist: 
  twist: 
    linear: 
      x: -0.0367217288669
      y: 0.0545899710246
      z: 0.444075936189
    angular: 
      x: 0.0300456172351
      y: -0.0141530597789
      z: -0.0200647064312
  covariance: [0.002, 0.0, 0.0, 0.0, 0.0, 0.0, 0.0, 0.002, 0.0, 0.0, 0.0, 0.0, 0.0, 0.0, 0.05, 0.0, 0.0, 0.0, 0.0, 0.0, 0.0, 0.09, 0.0, 0.0, 0.0, 0.0, 0.0, 0.0, 0.09, 0.0, 0.0, 0.0, 0.0, 0.0, 0.0, 0.09]
---
header: 
  seq: 11
  stamp: 
    secs: 1459170096
    nsecs: 836047714
  frame_id: odom
child_frame_id: base_link
pose: 
  pose: 
    position: 
      x: -0.181951882363
      y: 0.116092806671
      z: 1.38973357036
    orientation: 
      x: 0.0036379145589
      y: 0.0086938930877
      z: -0.00106818704005
      w: 0.999955019377
  covariance: [0.1, 0.0, 0.0, 0.0, 0.0, 0.0, 0.0, 0.1, 0.0, 0.0, 0.0, 0.0, 0.0, 0.0, 0.1, 0.0, 0.0, 0.0, 0.0, 0.0, 0.0, 0.17, 0.0, 0.0, 0.0, 0.0, 0.0, 0.0, 0.17, 0.0, 0.0, 0.0, 0.0, 0.0, 0.0, 0.17]
twist: 
  twist: 
    linear: 
      x: -0.209265464523
      y: 0.0372134402302
      z: 0.507643339859
    angular: 
      x: 0.00390746146242
      y: 0.0352815767982
      z: 0.00311595601018
  covariance: [0.002, 0.0, 0.0, 0.0, 0.0, 0.0, 0.0, 0.002, 0.0, 0.0, 0.0, 0.0, 0.0, 0.0, 0.05, 0.0, 0.0, 0.0, 0.0, 0.0, 0.0, 0.09, 0.0, 0.0, 0.0, 0.0, 0.0, 0.0, 0.09, 0.0, 0.0, 0.0, 0.0, 0.0, 0.0, 0.09]
---
header: 
  seq: 12
  stamp: 
    secs: 1459170097
    nsecs: 36032764
  frame_id: odom
child_frame_id: base_link
pose: 
  pose: 
    position: 
      x: -0.19583956515
      y: 0.12780042858
      z: 1.47725461891
    orientation: 
      x: 0.00579999799855
      y: 0.00896735340012
      z: -0.000415160184484
      w: 0.999942885488
  covariance: [0.1, 0.0, 0.0, 0.0, 0.0, 0.0, 0.0, 0.1, 0.0, 0.0, 0.0, 0.0, 0.0, 0.0, 0.1, 0.0, 0.0, 0.0, 0.0, 0.0, 0.0, 0.17, 0.0, 0.0, 0.0, 0.0, 0.0, 0.0, 0.17, 0.0, 0.0, 0.0, 0.0, 0.0, 0.0, 0.17]
twist: 
  twist: 
    linear: 
      x: -0.0771669228713
      y: 0.0615639662552
      z: 0.435926325916
    angular: 
      x: 0.021562239151
      y: 0.00278259708095
      z: 0.00670837341516
  covariance: [0.002, 0.0, 0.0, 0.0, 0.0, 0.0, 0.0, 0.002, 0.0, 0.0, 0.0, 0.0, 0.0, 0.0, 0.05, 0.0, 0.0, 0.0, 0.0, 0.0, 0.0, 0.09, 0.0, 0.0, 0.0, 0.0, 0.0, 0.0, 0.09, 0.0, 0.0, 0.0, 0.0, 0.0, 0.0, 0.09]
---
header: 
  seq: 13
  stamp: 
    secs: 1459170097
    nsecs: 302685689
  frame_id: odom
child_frame_id: base_link
pose: 
  pose: 
    position: 
      x: -0.205379966367
      y: 0.126322172261
      z: 1.59201511157
    orientation: 
      x: 0.00385548730117
      y: 0.00988791008652
      z: 0.00211156118581
      w: 0.999941451167
  covariance: [0.1, 0.0, 0.0, 0.0, 0.0, 0.0, 0.0, 0.1, 0.0, 0.0, 0.0, 0.0, 0.0, 0.0, 0.1, 0.0, 0.0, 0.0, 0.0, 0.0, 0.0, 0.17, 0.0, 0.0, 0.0, 0.0, 0.0, 0.0, 0.17, 0.0, 0.0, 0.0, 0.0, 0.0, 0.0, 0.17]
twist: 
  twist: 
    linear: 
      x: -0.0434888193883
      y: -0.000587952114319
      z: 0.429698733744
    angular: 
      x: -0.0147565237597
      y: 0.00700810900011
      z: 0.018779503105
  covariance: [0.002, 0.0, 0.0, 0.0, 0.0, 0.0, 0.0, 0.002, 0.0, 0.0, 0.0, 0.0, 0.0, 0.0, 0.05, 0.0, 0.0, 0.0, 0.0, 0.0, 0.0, 0.09, 0.0, 0.0, 0.0, 0.0, 0.0, 0.0, 0.09, 0.0, 0.0, 0.0, 0.0, 0.0, 0.0, 0.09]
---
header: 
  seq: 14
  stamp: 
    secs: 1459170097
    nsecs: 569368346
  frame_id: odom
child_frame_id: base_link
pose: 
  pose: 
    position: 
      x: -0.19277139139
      y: 0.160059655364
      z: 1.76008198264
    orientation: 
      x: 0.00425230104177
      y: 0.0105693705274
      z: -0.000448198721395
      w: 0.999935000618
  covariance: [0.1, 0.0, 0.0, 0.0, 0.0, 0.0, 0.0, 0.1, 0.0, 0.0, 0.0, 0.0, 0.0, 0.0, 0.1, 0.0, 0.0, 0.0, 0.0, 0.0, 0.0, 0.17, 0.0, 0.0, 0.0, 0.0, 0.0, 0.0, 0.17, 0.0, 0.0, 0.0, 0.0, 0.0, 0.0, 0.17]
twist: 
  twist: 
    linear: 
      x: 0.0353615399239
      y: 0.131192624835
      z: 0.630036550252
    angular: 
      x: 0.00317655081193
      y: 0.00503053416293
      z: -0.0191861233631
  covariance: [0.002, 0.0, 0.0, 0.0, 0.0, 0.0, 0.0, 0.002, 0.0, 0.0, 0.0, 0.0, 0.0, 0.0, 0.05, 0.0, 0.0, 0.0, 0.0, 0.0, 0.0, 0.09, 0.0, 0.0, 0.0, 0.0, 0.0, 0.0, 0.09, 0.0, 0.0, 0.0, 0.0, 0.0, 0.0, 0.09]
---
header: 
  seq: 15
  stamp: 
    secs: 1459170097
    nsecs: 769352420
  frame_id: odom
child_frame_id: base_link
pose: 
  pose: 
    position: 
      x: -0.184210704068
      y: 0.168066716861
      z: 1.86977268913
    orientation: 
      x: 0.00252325148551
      y: 0.0103575036239
      z: -0.000159917085213
      w: 0.999943163258
  covariance: [0.1, 0.0, 0.0, 0.0, 0.0, 0.0, 0.0, 0.1, 0.0, 0.0, 0.0, 0.0, 0.0, 0.0, 0.1, 0.0, 0.0, 0.0, 0.0, 0.0, 0.0, 0.17, 0.0, 0.0, 0.0, 0.0, 0.0, 0.0, 0.17, 0.0, 0.0, 0.0, 0.0, 0.0, 0.0, 0.17]
twist: 
  twist: 
    linear: 
      x: 0.0311690974262
      y: 0.0447384996406
      z: 0.548918618547
    angular: 
      x: -0.0173206270014
      y: -0.0021150545585
      z: 0.00270914226631
  covariance: [0.002, 0.0, 0.0, 0.0, 0.0, 0.0, 0.0, 0.002, 0.0, 0.0, 0.0, 0.0, 0.0, 0.0, 0.05, 0.0, 0.0, 0.0, 0.0, 0.0, 0.0, 0.09, 0.0, 0.0, 0.0, 0.0, 0.0, 0.0, 0.09, 0.0, 0.0, 0.0, 0.0, 0.0, 0.0, 0.09]
---
header: 
  seq: 16
  stamp: 
    secs: 1459170098
    nsecs: 36018812
  frame_id: odom
child_frame_id: base_link
pose: 
  pose: 
    position: 
      x: -0.184924902606
      y: 0.198202452516
      z: 2.02021958629
    orientation: 
      x: 0.00429253454199
      y: 0.0117015214559
      z: -0.0030226163713
      w: 0.999917752784
  covariance: [0.1, 0.0, 0.0, 0.0, 0.0, 0.0, 0.0, 0.1, 0.0, 0.0, 0.0, 0.0, 0.0, 0.0, 0.1, 0.0, 0.0, 0.0, 0.0, 0.0, 0.0, 0.17, 0.0, 0.0, 0.0, 0.0, 0.0, 0.0, 0.17, 0.0, 0.0, 0.0, 0.0, 0.0, 0.0, 0.17]
twist: 
  twist: 
    linear: 
      x: -0.0143946179501
      y: 0.115851771125
      z: 0.563422096698
    angular: 
      x: 0.0134901591715
      y: 0.0100295142314
      z: -0.0213571181116
  covariance: [0.002, 0.0, 0.0, 0.0, 0.0, 0.0, 0.0, 0.002, 0.0, 0.0, 0.0, 0.0, 0.0, 0.0, 0.05, 0.0, 0.0, 0.0, 0.0, 0.0, 0.0, 0.09, 0.0, 0.0, 0.0, 0.0, 0.0, 0.0, 0.09, 0.0, 0.0, 0.0, 0.0, 0.0, 0.0, 0.09]
---
header: 
  seq: 17
  stamp: 
    secs: 1459170098
    nsecs: 236069155
  frame_id: odom
child_frame_id: base_link
pose: 
  pose: 
    position: 
      x: -0.194503757212
      y: 0.188120492034
      z: 2.14512758547
    orientation: 
      x: 0.0046601808098
      y: 0.0120708553765
      z: -0.00351991012582
      w: 0.999910089657
  covariance: [0.1, 0.0, 0.0, 0.0, 0.0, 0.0, 0.0, 0.1, 0.0, 0.0, 0.0, 0.0, 0.0, 0.0, 0.1, 0.0, 0.0, 0.0, 0.0, 0.0, 0.0, 0.17, 0.0, 0.0, 0.0, 0.0, 0.0, 0.0, 0.17, 0.0, 0.0, 0.0, 0.0, 0.0, 0.0, 0.17]
twist: 
  twist: 
    linear: 
      x: -0.0621961170555
      y: -0.0453728231386
      z: 0.623505769003
    angular: 
      x: 0.00372257992221
      y: 0.00368277148139
      z: -0.00494434960161
  covariance: [0.002, 0.0, 0.0, 0.0, 0.0, 0.0, 0.0, 0.002, 0.0, 0.0, 0.0, 0.0, 0.0, 0.0, 0.05, 0.0, 0.0, 0.0, 0.0, 0.0, 0.0, 0.09, 0.0, 0.0, 0.0, 0.0, 0.0, 0.0, 0.09, 0.0, 0.0, 0.0, 0.0, 0.0, 0.0, 0.09]
---
header: 
  seq: 18
  stamp: 
    secs: 1459170098
    nsecs: 502711163
  frame_id: odom
child_frame_id: base_link
pose: 
  pose: 
    position: 
      x: -0.190251452192
      y: 0.194780907428
      z: 2.28854693701
    orientation: 
      x: 0.0110002338477
      y: 0.00950790018717
      z: -0.00306691660888
      w: 0.999889588261
  covariance: [0.1, 0.0, 0.0, 0.0, 0.0, 0.0, 0.0, 0.1, 0.0, 0.0, 0.0, 0.0, 0.0, 0.0, 0.1, 0.0, 0.0, 0.0, 0.0, 0.0, 0.0, 0.17, 0.0, 0.0, 0.0, 0.0, 0.0, 0.0, 0.17, 0.0, 0.0, 0.0, 0.0, 0.0, 0.0, 0.17]
twist: 
  twist: 
    linear: 
      x: 0.00276791932066
      y: 0.0300582231356
      z: 0.53784173234
    angular: 
      x: 0.0475782612002
      y: -0.01903728316
      z: 0.00406056468754
  covariance: [0.002, 0.0, 0.0, 0.0, 0.0, 0.0, 0.0, 0.002, 0.0, 0.0, 0.0, 0.0, 0.0, 0.0, 0.05, 0.0, 0.0, 0.0, 0.0, 0.0, 0.0, 0.09, 0.0, 0.0, 0.0, 0.0, 0.0, 0.0, 0.09, 0.0, 0.0, 0.0, 0.0, 0.0, 0.0, 0.09]
---
header: 
  seq: 19
  stamp: 
    secs: 1459170098
    nsecs: 769377894
  frame_id: odom
child_frame_id: base_link
pose: 
  pose: 
    position: 
      x: -0.178167080212
      y: 0.202170243277
      z: 2.4125139614
    orientation: 
      x: 0.0108357147049
      y: 0.00731681342282
      z: -0.00366668207908
      w: 0.999907799235
  covariance: [0.1, 0.0, 0.0, 0.0, 0.0, 0.0, 0.0, 0.1, 0.0, 0.0, 0.0, 0.0, 0.0, 0.0, 0.1, 0.0, 0.0, 0.0, 0.0, 0.0, 0.0, 0.17, 0.0, 0.0, 0.0, 0.0, 0.0, 0.0, 0.17, 0.0, 0.0, 0.0, 0.0, 0.0, 0.0, 0.17]
twist: 
  twist: 
    linear: 
      x: 0.0362728004394
      y: 0.038189440725
      z: 0.464927067434
    angular: 
      x: -0.00114209255488
      y: -0.0164859111602
      z: -0.00432829141564
  covariance: [0.002, 0.0, 0.0, 0.0, 0.0, 0.0, 0.0, 0.002, 0.0, 0.0, 0.0, 0.0, 0.0, 0.0, 0.05, 0.0, 0.0, 0.0, 0.0, 0.0, 0.0, 0.09, 0.0, 0.0, 0.0, 0.0, 0.0, 0.0, 0.09, 0.0, 0.0, 0.0, 0.0, 0.0, 0.0, 0.09]
---
header: 
  seq: 20
  stamp: 
    secs: 1459170099
    nsecs: 36055677
  frame_id: odom
child_frame_id: base_link
pose: 
  pose: 
    position: 
      x: -0.178093665358
      y: 0.207739231809
      z: 2.56995036814
    orientation: 
      x: 0.012379303123
      y: 0.0094469744517
      z: -0.0058621800966
      w: 0.999861561604
  covariance: [0.1, 0.0, 0.0, 0.0, 0.0, 0.0, 0.0, 0.1, 0.0, 0.0, 0.0, 0.0, 0.0, 0.0, 0.1, 0.0, 0.0, 0.0, 0.0, 0.0, 0.0, 0.17, 0.0, 0.0, 0.0, 0.0, 0.0, 0.0, 0.17, 0.0, 0.0, 0.0, 0.0, 0.0, 0.0, 0.17]
twist: 
  twist: 
    linear: 
      x: -0.00855980959387
      y: 0.0336405634161
      z: 0.589710438982
    angular: 
      x: 0.0116410415774
      y: 0.0158406681378
      z: -0.016553738323
  covariance: [0.002, 0.0, 0.0, 0.0, 0.0, 0.0, 0.0, 0.002, 0.0, 0.0, 0.0, 0.0, 0.0, 0.0, 0.05, 0.0, 0.0, 0.0, 0.0, 0.0, 0.0, 0.09, 0.0, 0.0, 0.0, 0.0, 0.0, 0.0, 0.09, 0.0, 0.0, 0.0, 0.0, 0.0, 0.0, 0.09]
---
header: 
  seq: 21
  stamp: 
    secs: 1459170099
    nsecs: 236074400
  frame_id: odom
child_frame_id: base_link
pose: 
  pose: 
    position: 
      x: -0.186708986287
      y: 0.234834657482
      z: 2.67550545141
    orientation: 
      x: 0.0157176414317
      y: 0.0106384166163
      z: -0.00524893873106
      w: 0.999806095441
  covariance: [0.1, 0.0, 0.0, 0.0, 0.0, 0.0, 0.0, 0.1, 0.0, 0.0, 0.0, 0.0, 0.0, 0.0, 0.1, 0.0, 0.0, 0.0, 0.0, 0.0, 0.0, 0.17, 0.0, 0.0, 0.0, 0.0, 0.0, 0.0, 0.17, 0.0, 0.0, 0.0, 0.0, 0.0, 0.0, 0.17]
twist: 
  twist: 
    linear: 
      x: -0.0546642955754
      y: 0.14790411539
      z: 0.523294176723
    angular: 
      x: 0.0332548092237
      y: 0.0121885117865
      z: 0.0062956171155
  covariance: [0.002, 0.0, 0.0, 0.0, 0.0, 0.0, 0.0, 0.002, 0.0, 0.0, 0.0, 0.0, 0.0, 0.0, 0.05, 0.0, 0.0, 0.0, 0.0, 0.0, 0.0, 0.09, 0.0, 0.0, 0.0, 0.0, 0.0, 0.0, 0.09, 0.0, 0.0, 0.0, 0.0, 0.0, 0.0, 0.09]
---
header: 
  seq: 22
  stamp: 
    secs: 1459170099
    nsecs: 502678190
  frame_id: odom
child_frame_id: base_link
pose: 
  pose: 
    position: 
      x: -0.192289846051
      y: 0.2462524552
      z: 2.81963053414
    orientation: 
      x: 0.0160587645617
      y: 0.0100984282772
      z: -0.00571200054839
      w: 0.999803736179
  covariance: [0.1, 0.0, 0.0, 0.0, 0.0, 0.0, 0.0, 0.1, 0.0, 0.0, 0.0, 0.0, 0.0, 0.0, 0.1, 0.0, 0.0, 0.0, 0.0, 0.0, 0.0, 0.17, 0.0, 0.0, 0.0, 0.0, 0.0, 0.0, 0.17, 0.0, 0.0, 0.0, 0.0, 0.0, 0.0, 0.17]
twist: 
  twist: 
    linear: 
      x: -0.0329516009177
      y: 0.0595067430043
      z: 0.538414411948
    angular: 
      x: 0.00261702741037
      y: -0.00409106184002
      z: -0.0033823082924
  covariance: [0.002, 0.0, 0.0, 0.0, 0.0, 0.0, 0.0, 0.002, 0.0, 0.0, 0.0, 0.0, 0.0, 0.0, 0.05, 0.0, 0.0, 0.0, 0.0, 0.0, 0.0, 0.09, 0.0, 0.0, 0.0, 0.0, 0.0, 0.0, 0.09, 0.0, 0.0, 0.0, 0.0, 0.0, 0.0, 0.09]
---
header: 
  seq: 23
  stamp: 
    secs: 1459170099
    nsecs: 769376580
  frame_id: odom
child_frame_id: base_link
pose: 
  pose: 
    position: 
      x: -0.20867848102
      y: 0.240114788352
      z: 2.96897672306
    orientation: 
      x: 0.013872842899
      y: 0.0126168201344
      z: -0.0038945815894
      w: 0.999816579335
  covariance: [0.1, 0.0, 0.0, 0.0, 0.0, 0.0, 0.0, 0.1, 0.0, 0.0, 0.0, 0.0, 0.0, 0.0, 0.1, 0.0, 0.0, 0.0, 0.0, 0.0, 0.0, 0.17, 0.0, 0.0, 0.0, 0.0, 0.0, 0.0, 0.17, 0.0, 0.0, 0.0, 0.0, 0.0, 0.0, 0.17]
twist: 
  twist: 
    linear: 
      x: -0.0725885169852
      y: -0.0058048467335
      z: 0.559090624952
    angular: 
      x: -0.0166363385562
      y: 0.0190062902323
      z: 0.0131581087424
  covariance: [0.002, 0.0, 0.0, 0.0, 0.0, 0.0, 0.0, 0.002, 0.0, 0.0, 0.0, 0.0, 0.0, 0.0, 0.05, 0.0, 0.0, 0.0, 0.0, 0.0, 0.0, 0.09, 0.0, 0.0, 0.0, 0.0, 0.0, 0.0, 0.09, 0.0, 0.0, 0.0, 0.0, 0.0, 0.0, 0.09]
---
header: 
  seq: 24
  stamp: 
    secs: 1459170100
    nsecs: 36048831
  frame_id: odom
child_frame_id: base_link
pose: 
  pose: 
    position: 
      x: -0.21560058527
      y: 0.236678893024
      z: 3.12825252881
    orientation: 
      x: 0.00777122334997
      y: 0.0135119749465
      z: -0.00463361968555
      w: 0.999867773353
  covariance: [0.1, 0.0, 0.0, 0.0, 0.0, 0.0, 0.0, 0.1, 0.0, 0.0, 0.0, 0.0, 0.0, 0.0, 0.1, 0.0, 0.0, 0.0, 0.0, 0.0, 0.0, 0.17, 0.0, 0.0, 0.0, 0.0, 0.0, 0.0, 0.17, 0.0, 0.0, 0.0, 0.0, 0.0, 0.0, 0.17]
twist: 
  twist: 
    linear: 
      x: -0.0409855827857
      y: 0.0034197554363
      z: 0.596558326823
    angular: 
      x: -0.0457146306434
      y: 0.00645237313358
      z: -0.00621069392929
  covariance: [0.002, 0.0, 0.0, 0.0, 0.0, 0.0, 0.0, 0.002, 0.0, 0.0, 0.0, 0.0, 0.0, 0.0, 0.05, 0.0, 0.0, 0.0, 0.0, 0.0, 0.0, 0.09, 0.0, 0.0, 0.0, 0.0, 0.0, 0.0, 0.09, 0.0, 0.0, 0.0, 0.0, 0.0, 0.0, 0.09]
---
header: 
  seq: 25
  stamp: 
    secs: 1459170100
    nsecs: 302709850
  frame_id: odom
child_frame_id: base_link
pose: 
  pose: 
    position: 
      x: -0.213484704304
      y: 0.235508115683
      z: 3.26790286017
    orientation: 
      x: 0.0050232239667
      y: 0.013512451357
      z: -0.00403836754276
      w: 0.999887929954
  covariance: [0.1, 0.0, 0.0, 0.0, 0.0, 0.0, 0.0, 0.1, 0.0, 0.0, 0.0, 0.0, 0.0, 0.0, 0.1, 0.0, 0.0, 0.0, 0.0, 0.0, 0.0, 0.17, 0.0, 0.0, 0.0, 0.0, 0.0, 0.0, 0.17, 0.0, 0.0, 0.0, 0.0, 0.0, 0.0, 0.17]
twist: 
  twist: 
    linear: 
      x: -0.00621703837634
      y: 0.00375832389699
      z: 0.523727959763
    angular: 
      x: -0.0206692492757
      y: -5.92764933307e-05
      z: 0.00418608590821
  covariance: [0.002, 0.0, 0.0, 0.0, 0.0, 0.0, 0.0, 0.002, 0.0, 0.0, 0.0, 0.0, 0.0, 0.0, 0.05, 0.0, 0.0, 0.0, 0.0, 0.0, 0.0, 0.09, 0.0, 0.0, 0.0, 0.0, 0.0, 0.0, 0.09, 0.0, 0.0, 0.0, 0.0, 0.0, 0.0, 0.09]
---
header: 
  seq: 26
  stamp: 
    secs: 1459170100
    nsecs: 569341495
  frame_id: odom
child_frame_id: base_link
pose: 
  pose: 
    position: 
      x: -0.225590761964
      y: 0.236035227658
      z: 3.39108055573
    orientation: 
      x: 0.0116085232863
      y: 0.011615860751
      z: -0.00759628749782
      w: 0.999836291791
  covariance: [0.1, 0.0, 0.0, 0.0, 0.0, 0.0, 0.0, 0.1, 0.0, 0.0, 0.0, 0.0, 0.0, 0.0, 0.1, 0.0, 0.0, 0.0, 0.0, 0.0, 0.0, 0.17, 0.0, 0.0, 0.0, 0.0, 0.0, 0.0, 0.17, 0.0, 0.0, 0.0, 0.0, 0.0, 0.0, 0.17]
twist: 
  twist: 
    linear: 
      x: -0.0579035431183
      y: 0.0061942187412
      z: 0.460539889989
    angular: 
      x: 0.0498112070387
      y: -0.0141541895253
      z: -0.0259478097042
  covariance: [0.002, 0.0, 0.0, 0.0, 0.0, 0.0, 0.0, 0.002, 0.0, 0.0, 0.0, 0.0, 0.0, 0.0, 0.05, 0.0, 0.0, 0.0, 0.0, 0.0, 0.0, 0.09, 0.0, 0.0, 0.0, 0.0, 0.0, 0.0, 0.09, 0.0, 0.0, 0.0, 0.0, 0.0, 0.0, 0.09]
---
header: 
  seq: 27
  stamp: 
    secs: 1459170100
    nsecs: 836010392
  frame_id: odom
child_frame_id: base_link
pose: 
  pose: 
    position: 
      x: -0.205765987248
      y: 0.254408944085
      z: 3.52821928396
    orientation: 
      x: 0.0143629821121
      y: 0.0128304900425
      z: -0.00616207099884
      w: 0.999795535173
  covariance: [0.1, 0.0, 0.0, 0.0, 0.0, 0.0, 0.0, 0.1, 0.0, 0.0, 0.0, 0.0, 0.0, 0.0, 0.1, 0.0, 0.0, 0.0, 0.0, 0.0, 0.0, 0.17, 0.0, 0.0, 0.0, 0.0, 0.0, 0.0, 0.17, 0.0, 0.0, 0.0, 0.0, 0.0, 0.0, 0.17]
twist: 
  twist: 
    linear: 
      x: 0.061249588847
      y: 0.0818706801197
      z: 0.514090682369
    angular: 
      x: 0.0204643269471
      y: 0.00939351384589
      z: 0.0108866851106
  covariance: [0.002, 0.0, 0.0, 0.0, 0.0, 0.0, 0.0, 0.002, 0.0, 0.0, 0.0, 0.0, 0.0, 0.0, 0.05, 0.0, 0.0, 0.0, 0.0, 0.0, 0.0, 0.09, 0.0, 0.0, 0.0, 0.0, 0.0, 0.0, 0.09, 0.0, 0.0, 0.0, 0.0, 0.0, 0.0, 0.09]
---
header: 
  seq: 28
  stamp: 
    secs: 1459170101
    nsecs: 102710273
  frame_id: odom
child_frame_id: base_link
pose: 
  pose: 
    position: 
      x: -0.228068597714
      y: 0.223909999766
      z: 3.66056239033
    orientation: 
      x: 0.0192642229048
      y: 0.0161684869531
      z: -0.00331559029147
      w: 0.999678186521
  covariance: [0.1, 0.0, 0.0, 0.0, 0.0, 0.0, 0.0, 0.1, 0.0, 0.0, 0.0, 0.0, 0.0, 0.0, 0.1, 0.0, 0.0, 0.0, 0.0, 0.0, 0.0, 0.17, 0.0, 0.0, 0.0, 0.0, 0.0, 0.0, 0.17, 0.0, 0.0, 0.0, 0.0, 0.0, 0.0, 0.17]
twist: 
  twist: 
    linear: 
      x: -0.0950424268748
      y: -0.101188982737
      z: 0.497028504125
    angular: 
      x: 0.0363319874884
      y: 0.0255712929315
      z: 0.0214483631822
  covariance: [0.002, 0.0, 0.0, 0.0, 0.0, 0.0, 0.0, 0.002, 0.0, 0.0, 0.0, 0.0, 0.0, 0.0, 0.05, 0.0, 0.0, 0.0, 0.0, 0.0, 0.0, 0.09, 0.0, 0.0, 0.0, 0.0, 0.0, 0.0, 0.09, 0.0, 0.0, 0.0, 0.0, 0.0, 0.0, 0.09]
---
header: 
  seq: 29
  stamp: 
    secs: 1459170101
    nsecs: 369376941
  frame_id: odom
child_frame_id: base_link
pose: 
  pose: 
    position: 
      x: -0.226734137532
      y: 0.230838471551
      z: 3.81614324332
    orientation: 
      x: 0.0189081443286
      y: 0.0124357337843
      z: -0.00666557137667
      w: 0.999721663645
  covariance: [0.1, 0.0, 0.0, 0.0, 0.0, 0.0, 0.0, 0.1, 0.0, 0.0, 0.0, 0.0, 0.0, 0.0, 0.1, 0.0, 0.0, 0.0, 0.0, 0.0, 0.0, 0.17, 0.0, 0.0, 0.0, 0.0, 0.0, 0.0, 0.17, 0.0, 0.0, 0.0, 0.0, 0.0, 0.0, 0.17]
twist: 
  twist: 
    linear: 
      x: -0.014089310557
      y: 0.0484069990165
      z: 0.581847753312
    angular: 
      x: -0.00217696765843
      y: -0.0284848969264
      z: -0.0246196600753
  covariance: [0.002, 0.0, 0.0, 0.0, 0.0, 0.0, 0.0, 0.002, 0.0, 0.0, 0.0, 0.0, 0.0, 0.0, 0.05, 0.0, 0.0, 0.0, 0.0, 0.0, 0.0, 0.09, 0.0, 0.0, 0.0, 0.0, 0.0, 0.0, 0.09, 0.0, 0.0, 0.0, 0.0, 0.0, 0.0, 0.09]
---
header: 
  seq: 30
  stamp: 
    secs: 1459170101
    nsecs: 636057243
  frame_id: odom
child_frame_id: base_link
pose: 
  pose: 
    position: 
      x: -0.266170113455
      y: 0.225891520266
      z: 3.974722604
    orientation: 
      x: 0.015087148371
      y: 0.0144972795789
      z: -0.00702715463944
      w: 0.999756383294
  covariance: [0.1, 0.0, 0.0, 0.0, 0.0, 0.0, 0.0, 0.1, 0.0, 0.0, 0.0, 0.0, 0.0, 0.0, 0.1, 0.0, 0.0, 0.0, 0.0, 0.0, 0.0, 0.17, 0.0, 0.0, 0.0, 0.0, 0.0, 0.0, 0.17, 0.0, 0.0, 0.0, 0.0, 0.0, 0.0, 0.17]
twist: 
  twist: 
    linear: 
      x: -0.162515365901
      y: 0.00180674612913
      z: 0.591097835413
    angular: 
      x: -0.0287223753287
      y: 0.0152110271269
      z: -0.00335794958844
  covariance: [0.002, 0.0, 0.0, 0.0, 0.0, 0.0, 0.0, 0.002, 0.0, 0.0, 0.0, 0.0, 0.0, 0.0, 0.05, 0.0, 0.0, 0.0, 0.0, 0.0, 0.0, 0.09, 0.0, 0.0, 0.0, 0.0, 0.0, 0.0, 0.09, 0.0, 0.0, 0.0, 0.0, 0.0, 0.0, 0.09]
---
header: 
  seq: 31
  stamp: 
    secs: 1459170101
    nsecs: 836047344
  frame_id: odom
child_frame_id: base_link
pose: 
  pose: 
    position: 
      x: -0.272784774873
      y: 0.227092111867
      z: 4.08825969138
    orientation: 
      x: 0.013686480865
      y: 0.0183474054209
      z: -0.00661110080643
      w: 0.999716132861
  covariance: [0.1, 0.0, 0.0, 0.0, 0.0, 0.0, 0.0, 0.1, 0.0, 0.0, 0.0, 0.0, 0.0, 0.0, 0.1, 0.0, 0.0, 0.0, 0.0, 0.0, 0.0, 0.17, 0.0, 0.0, 0.0, 0.0, 0.0, 0.0, 0.17, 0.0, 0.0, 0.0, 0.0, 0.0, 0.0, 0.17]
twist: 
  twist: 
    linear: 
      x: -0.0497164710433
      y: 0.0225312408194
      z: 0.566082384055
    angular: 
      x: -0.0143288106467
      y: 0.0384640701746
      z: 0.00337293988815
  covariance: [0.002, 0.0, 0.0, 0.0, 0.0, 0.0, 0.0, 0.002, 0.0, 0.0, 0.0, 0.0, 0.0, 0.0, 0.05, 0.0, 0.0, 0.0, 0.0, 0.0, 0.0, 0.09, 0.0, 0.0, 0.0, 0.0, 0.0, 0.0, 0.09, 0.0, 0.0, 0.0, 0.0, 0.0, 0.0, 0.09]
---
header: 
  seq: 32
  stamp: 
    secs: 1459170102
    nsecs: 102695181
  frame_id: odom
child_frame_id: base_link
pose: 
  pose: 
    position: 
      x: -0.292444851039
      y: 0.229639718234
      z: 4.22615514254
    orientation: 
      x: 0.0150999308163
      y: 0.0182403687145
      z: -0.00696871441567
      w: 0.999695312612
  covariance: [0.1, 0.0, 0.0, 0.0, 0.0, 0.0, 0.0, 0.1, 0.0, 0.0, 0.0, 0.0, 0.0, 0.0, 0.1, 0.0, 0.0, 0.0, 0.0, 0.0, 0.0, 0.17, 0.0, 0.0, 0.0, 0.0, 0.0, 0.0, 0.17, 0.0, 0.0, 0.0, 0.0, 0.0, 0.0, 0.17]
twist: 
  twist: 
    linear: 
      x: -0.092860617264
      y: 0.0225644535637
      z: 0.513647359404
    angular: 
      x: 0.010655275585
      y: -0.000766361908891
      z: -0.00247706312186
  covariance: [0.002, 0.0, 0.0, 0.0, 0.0, 0.0, 0.0, 0.002, 0.0, 0.0, 0.0, 0.0, 0.0, 0.0, 0.05, 0.0, 0.0, 0.0, 0.0, 0.0, 0.0, 0.09, 0.0, 0.0, 0.0, 0.0, 0.0, 0.0, 0.09, 0.0, 0.0, 0.0, 0.0, 0.0, 0.0, 0.09]
---
header: 
  seq: 33
  stamp: 
    secs: 1459170102
    nsecs: 369376683
  frame_id: odom
child_frame_id: base_link
pose: 
  pose: 
    position: 
      x: -0.298853397371
      y: 0.228443094078
      z: 4.34096587899
    orientation: 
      x: 0.0154638522839
      y: 0.0168740379881
      z: -0.0074710004578
      w: 0.999710118118
  covariance: [0.1, 0.0, 0.0, 0.0, 0.0, 0.0, 0.0, 0.1, 0.0, 0.0, 0.0, 0.0, 0.0, 0.0, 0.1, 0.0, 0.0, 0.0, 0.0, 0.0, 0.0, 0.17, 0.0, 0.0, 0.0, 0.0, 0.0, 0.0, 0.17, 0.0, 0.0, 0.0, 0.0, 0.0, 0.0, 0.17]
twist: 
  twist: 
    linear: 
      x: -0.0397437107588
      y: 0.00805545338306
      z: 0.429298789007
    angular: 
      x: 0.00286687014329
      y: -0.0102836785051
      z: -0.0035605052468
  covariance: [0.002, 0.0, 0.0, 0.0, 0.0, 0.0, 0.0, 0.002, 0.0, 0.0, 0.0, 0.0, 0.0, 0.0, 0.05, 0.0, 0.0, 0.0, 0.0, 0.0, 0.0, 0.09, 0.0, 0.0, 0.0, 0.0, 0.0, 0.0, 0.09, 0.0, 0.0, 0.0, 0.0, 0.0, 0.0, 0.09]
---
header: 
  seq: 34
  stamp: 
    secs: 1459170102
    nsecs: 636053330
  frame_id: odom
child_frame_id: base_link
pose: 
  pose: 
    position: 
      x: -0.292290717747
      y: 0.232453636657
      z: 4.46619753329
    orientation: 
      x: 0.0127057731393
      y: 0.0204855965905
      z: -0.00324627400089
      w: 0.999704138916
  covariance: [0.1, 0.0, 0.0, 0.0, 0.0, 0.0, 0.0, 0.1, 0.0, 0.0, 0.0, 0.0, 0.0, 0.0, 0.1, 0.0, 0.0, 0.0, 0.0, 0.0, 0.0, 0.17, 0.0, 0.0, 0.0, 0.0, 0.0, 0.0, 0.17, 0.0, 0.0, 0.0, 0.0, 0.0, 0.0, 0.17]
twist: 
  twist: 
    linear: 
      x: 0.00842352068889
      y: 0.0298116197267
      z: 0.469464919983
    angular: 
      x: -0.0214152657967
      y: 0.0274141811905
      z: 0.0309070558883
  covariance: [0.002, 0.0, 0.0, 0.0, 0.0, 0.0, 0.0, 0.002, 0.0, 0.0, 0.0, 0.0, 0.0, 0.0, 0.05, 0.0, 0.0, 0.0, 0.0, 0.0, 0.0, 0.09, 0.0, 0.0, 0.0, 0.0, 0.0, 0.0, 0.09, 0.0, 0.0, 0.0, 0.0, 0.0, 0.0, 0.09]
---
header: 
  seq: 35
  stamp: 
    secs: 1459170102
    nsecs: 902712141
  frame_id: odom
child_frame_id: base_link
pose: 
  pose: 
    position: 
      x: -0.288509890262
      y: 0.233014383935
      z: 4.60653896588
    orientation: 
      x: 0.0111577701131
      y: 0.0201591318379
      z: -0.00502070982774
      w: 0.999721914355
  covariance: [0.1, 0.0, 0.0, 0.0, 0.0, 0.0, 0.0, 0.1, 0.0, 0.0, 0.0, 0.0, 0.0, 0.0, 0.1, 0.0, 0.0, 0.0, 0.0, 0.0, 0.0, 0.17, 0.0, 0.0, 0.0, 0.0, 0.0, 0.0, 0.17, 0.0, 0.0, 0.0, 0.0, 0.0, 0.0, 0.17]
twist: 
  twist: 
    linear: 
      x: -0.00744623862172
      y: 0.0155015852369
      z: 0.526210087513
    angular: 
      x: -0.0113280497243
      y: -0.00265735422945
      z: -0.0135110376061
  covariance: [0.002, 0.0, 0.0, 0.0, 0.0, 0.0, 0.0, 0.002, 0.0, 0.0, 0.0, 0.0, 0.0, 0.0, 0.05, 0.0, 0.0, 0.0, 0.0, 0.0, 0.0, 0.09, 0.0, 0.0, 0.0, 0.0, 0.0, 0.0, 0.09, 0.0, 0.0, 0.0, 0.0, 0.0, 0.0, 0.09]
---
header: 
  seq: 36
  stamp: 
    secs: 1459170103
    nsecs: 169385043
  frame_id: odom
child_frame_id: base_link
pose: 
  pose: 
    position: 
      x: -0.306305690088
      y: 0.234886499775
      z: 4.73240865757
    orientation: 
      x: 0.0140871301267
      y: 0.0200812518921
      z: -0.00622233877029
      w: 0.99967973801
  covariance: [0.1, 0.0, 0.0, 0.0, 0.0, 0.0, 0.0, 0.1, 0.0, 0.0, 0.0, 0.0, 0.0, 0.0, 0.1, 0.0, 0.0, 0.0, 0.0, 0.0, 0.0, 0.17, 0.0, 0.0, 0.0, 0.0, 0.0, 0.0, 0.17, 0.0, 0.0, 0.0, 0.0, 0.0, 0.0, 0.17]
twist: 
  twist: 
    linear: 
      x: -0.0858202249438
      y: 0.016752710753
      z: 0.468658790325
    angular: 
      x: 0.0221517501044
      y: -0.00056779829477
      z: -0.00856169577847
  covariance: [0.002, 0.0, 0.0, 0.0, 0.0, 0.0, 0.0, 0.002, 0.0, 0.0, 0.0, 0.0, 0.0, 0.0, 0.05, 0.0, 0.0, 0.0, 0.0, 0.0, 0.0, 0.09, 0.0, 0.0, 0.0, 0.0, 0.0, 0.0, 0.09, 0.0, 0.0, 0.0, 0.0, 0.0, 0.0, 0.09]
---
header: 
  seq: 37
  stamp: 
    secs: 1459170103
    nsecs: 436048160
  frame_id: odom
child_frame_id: base_link
pose: 
  pose: 
    position: 
      x: -0.29935041085
      y: 0.237401008385
      z: 4.86583884917
    orientation: 
      x: 0.0137168168709
      y: 0.0206393817574
      z: -0.00303097292907
      w: 0.999688290448
  covariance: [0.1, 0.0, 0.0, 0.0, 0.0, 0.0, 0.0, 0.1, 0.0, 0.0, 0.0, 0.0, 0.0, 0.0, 0.1, 0.0, 0.0, 0.0, 0.0, 0.0, 0.0, 0.17, 0.0, 0.0, 0.0, 0.0, 0.0, 0.0, 0.17, 0.0, 0.0, 0.0, 0.0, 0.0, 0.0, 0.17]
twist: 
  twist: 
    linear: 
      x: 0.00577022281799
      y: 0.0237322946344
      z: 0.500542424776
    angular: 
      x: -0.00328410927796
      y: 0.00450331051491
      z: 0.0238135955599
  covariance: [0.002, 0.0, 0.0, 0.0, 0.0, 0.0, 0.0, 0.002, 0.0, 0.0, 0.0, 0.0, 0.0, 0.0, 0.05, 0.0, 0.0, 0.0, 0.0, 0.0, 0.0, 0.09, 0.0, 0.0, 0.0, 0.0, 0.0, 0.0, 0.09, 0.0, 0.0, 0.0, 0.0, 0.0, 0.0, 0.09]
---
header: 
  seq: 38
  stamp: 
    secs: 1459170103
    nsecs: 702721544
  frame_id: odom
child_frame_id: base_link
pose: 
  pose: 
    position: 
      x: -0.320808259446
      y: 0.226465888205
      z: 5.0144696394
    orientation: 
      x: 0.0150380228704
      y: 0.023202386948
      z: -0.00276912963911
      w: 0.999613844957
  covariance: [0.1, 0.0, 0.0, 0.0, 0.0, 0.0, 0.0, 0.1, 0.0, 0.0, 0.0, 0.0, 0.0, 0.0, 0.1, 0.0, 0.0, 0.0, 0.0, 0.0, 0.0, 0.17, 0.0, 0.0, 0.0, 0.0, 0.0, 0.0, 0.17, 0.0, 0.0, 0.0, 0.0, 0.0, 0.0, 0.17]
twist: 
  twist: 
    linear: 
      x: -0.103215544941
      y: -0.0263069901395
      z: 0.554482793968
    angular: 
      x: 0.00981458628649
      y: 0.0192845835517
      z: 0.0019023194713
  covariance: [0.002, 0.0, 0.0, 0.0, 0.0, 0.0, 0.0, 0.002, 0.0, 0.0, 0.0, 0.0, 0.0, 0.0, 0.05, 0.0, 0.0, 0.0, 0.0, 0.0, 0.0, 0.09, 0.0, 0.0, 0.0, 0.0, 0.0, 0.0, 0.09, 0.0, 0.0, 0.0, 0.0, 0.0, 0.0, 0.09]
---
header: 
  seq: 39
  stamp: 
    secs: 1459170104
    nsecs: 36045201
  frame_id: odom
child_frame_id: base_link
pose: 
  pose: 
    position: 
      x: -0.302258096482
      y: 0.230353053883
      z: 5.21429039698
    orientation: 
      x: 0.0139596597593
      y: 0.0241016253073
      z: -0.000735748894096
      w: 0.999611773755
  covariance: [0.1, 0.0, 0.0, 0.0, 0.0, 0.0, 0.0, 0.1, 0.0, 0.0, 0.0, 0.0, 0.0, 0.0, 0.1, 0.0, 0.0, 0.0, 0.0, 0.0, 0.0, 0.17, 0.0, 0.0, 0.0, 0.0, 0.0, 0.0, 0.17, 0.0, 0.0, 0.0, 0.0, 0.0, 0.0, 0.17]
twist: 
  twist: 
    linear: 
      x: 0.0276770031611
      y: 0.029949297182
      z: 0.600787865218
    angular: 
      x: -0.00676571294755
      y: 0.0055593534574
      z: 0.0119646381624
  covariance: [0.002, 0.0, 0.0, 0.0, 0.0, 0.0, 0.0, 0.002, 0.0, 0.0, 0.0, 0.0, 0.0, 0.0, 0.05, 0.0, 0.0, 0.0, 0.0, 0.0, 0.0, 0.09, 0.0, 0.0, 0.0, 0.0, 0.0, 0.0, 0.09, 0.0, 0.0, 0.0, 0.0, 0.0, 0.0, 0.09]
---
header: 
  seq: 40
  stamp: 
    secs: 1459170104
    nsecs: 236041216
  frame_id: odom
child_frame_id: base_link
pose: 
  pose: 
    position: 
      x: -0.306610896989
      y: 0.233994431973
      z: 5.33133003399
    orientation: 
      x: 0.0161599047974
      y: 0.0233887410981
      z: -0.00181943224616
      w: 0.999594174619
  covariance: [0.1, 0.0, 0.0, 0.0, 0.0, 0.0, 0.0, 0.1, 0.0, 0.0, 0.0, 0.0, 0.0, 0.0, 0.1, 0.0, 0.0, 0.0, 0.0, 0.0, 0.0, 0.17, 0.0, 0.0, 0.0, 0.0, 0.0, 0.0, 0.17, 0.0, 0.0, 0.0, 0.0, 0.0, 0.0, 0.17]
twist: 
  twist: 
    linear: 
      x: -0.0499637435773
      y: 0.0344650409589
      z: 0.582744835388
    angular: 
      x: 0.0222632633728
      y: -0.00725707552888
      z: -0.0102031592298
  covariance: [0.002, 0.0, 0.0, 0.0, 0.0, 0.0, 0.0, 0.002, 0.0, 0.0, 0.0, 0.0, 0.0, 0.0, 0.05, 0.0, 0.0, 0.0, 0.0, 0.0, 0.0, 0.09, 0.0, 0.0, 0.0, 0.0, 0.0, 0.0, 0.09, 0.0, 0.0, 0.0, 0.0, 0.0, 0.0, 0.09]
---
header: 
  seq: 41
  stamp: 
    secs: 1459170104
    nsecs: 502711108
  frame_id: odom
child_frame_id: base_link
pose: 
  pose: 
    position: 
      x: -0.293185839106
      y: 0.252432991141
      z: 5.51154535749
    orientation: 
      x: 0.0185431861933
      y: 0.0243428451267
      z: -0.0053810561737
      w: 0.999517193635
  covariance: [0.1, 0.0, 0.0, 0.0, 0.0, 0.0, 0.0, 0.1, 0.0, 0.0, 0.0, 0.0, 0.0, 0.0, 0.1, 0.0, 0.0, 0.0, 0.0, 0.0, 0.0, 0.17, 0.0, 0.0, 0.0, 0.0, 0.0, 0.0, 0.17, 0.0, 0.0, 0.0, 0.0, 0.0, 0.0, 0.17]
twist: 
  twist: 
    linear: 
      x: 0.0184496106347
      y: 0.0911036881057
      z: 0.67481828864
    angular: 
      x: 0.0184882671302
      y: 0.00676717514339
      z: -0.0263997270631
  covariance: [0.002, 0.0, 0.0, 0.0, 0.0, 0.0, 0.0, 0.002, 0.0, 0.0, 0.0, 0.0, 0.0, 0.0, 0.05, 0.0, 0.0, 0.0, 0.0, 0.0, 0.0, 0.09, 0.0, 0.0, 0.0, 0.0, 0.0, 0.0, 0.09, 0.0, 0.0, 0.0, 0.0, 0.0, 0.0, 0.09]
---
header: 
  seq: 42
  stamp: 
    secs: 1459170104
    nsecs: 769393201
  frame_id: odom
child_frame_id: base_link
pose: 
  pose: 
    position: 
      x: -0.299172067733
      y: 0.252581732891
      z: 5.65643832311
    orientation: 
      x: 0.0191657507528
      y: 0.0239220699638
      z: -0.00263392854811
      w: 0.999526623451
  covariance: [0.1, 0.0, 0.0, 0.0, 0.0, 0.0, 0.0, 0.1, 0.0, 0.0, 0.0, 0.0, 0.0, 0.0, 0.1, 0.0, 0.0, 0.0, 0.0, 0.0, 0.0, 0.17, 0.0, 0.0, 0.0, 0.0, 0.0, 0.0, 0.17, 0.0, 0.0, 0.0, 0.0, 0.0, 0.0, 0.17]
twist: 
  twist: 
    linear: 
      x: -0.048972079765
      y: 0.0202932041716
      z: 0.541190976147
    angular: 
      x: 0.00418086705645
      y: -0.00274867724316
      z: 0.0207648984161
  covariance: [0.002, 0.0, 0.0, 0.0, 0.0, 0.0, 0.0, 0.002, 0.0, 0.0, 0.0, 0.0, 0.0, 0.0, 0.05, 0.0, 0.0, 0.0, 0.0, 0.0, 0.0, 0.09, 0.0, 0.0, 0.0, 0.0, 0.0, 0.0, 0.09, 0.0, 0.0, 0.0, 0.0, 0.0, 0.0, 0.09]
---
header: 
  seq: 43
  stamp: 
    secs: 1459170105
    nsecs: 36043857
  frame_id: odom
child_frame_id: base_link
pose: 
  pose: 
    position: 
      x: -0.277337424222
      y: 0.270985043201
      z: 5.80205192025
    orientation: 
      x: 0.0226428187537
      y: 0.0222433963157
      z: -0.00428246795971
      w: 0.999486965672
  covariance: [0.1, 0.0, 0.0, 0.0, 0.0, 0.0, 0.0, 0.1, 0.0, 0.0, 0.0, 0.0, 0.0, 0.0, 0.1, 0.0, 0.0, 0.0, 0.0, 0.0, 0.0, 0.17, 0.0, 0.0, 0.0, 0.0, 0.0, 0.0, 0.17, 0.0, 0.0, 0.0, 0.0, 0.0, 0.0, 0.17]
twist: 
  twist: 
    linear: 
      x: 0.0553201877494
      y: 0.090324621732
      z: 0.546312218982
    angular: 
      x: 0.0264019634185
      y: -0.0127460586218
      z: -0.0114945622715
  covariance: [0.002, 0.0, 0.0, 0.0, 0.0, 0.0, 0.0, 0.002, 0.0, 0.0, 0.0, 0.0, 0.0, 0.0, 0.05, 0.0, 0.0, 0.0, 0.0, 0.0, 0.0, 0.09, 0.0, 0.0, 0.0, 0.0, 0.0, 0.0, 0.09, 0.0, 0.0, 0.0, 0.0, 0.0, 0.0, 0.09]
---
header: 
  seq: 44
  stamp: 
    secs: 1459170105
    nsecs: 302743025
  frame_id: odom
child_frame_id: base_link
pose: 
  pose: 
    position: 
      x: -0.268406584434
      y: 0.265511353676
      z: 5.94977287789
    orientation: 
      x: 0.0229832311456
      y: 0.0222555105958
      z: -0.00387136540158
      w: 0.999480603045
  covariance: [0.1, 0.0, 0.0, 0.0, 0.0, 0.0, 0.0, 0.1, 0.0, 0.0, 0.0, 0.0, 0.0, 0.0, 0.1, 0.0, 0.0, 0.0, 0.0, 0.0, 0.0, 0.17, 0.0, 0.0, 0.0, 0.0, 0.0, 0.0, 0.17, 0.0, 0.0, 0.0, 0.0, 0.0, 0.0, 0.17]
twist: 
  twist: 
    linear: 
      x: 0.00887183338835
      y: 0.0047830512162
      z: 0.555185360482
    angular: 
      x: 0.00248358957038
      y: 0.000172598351587
      z: 0.00313583315589
  covariance: [0.002, 0.0, 0.0, 0.0, 0.0, 0.0, 0.0, 0.002, 0.0, 0.0, 0.0, 0.0, 0.0, 0.0, 0.05, 0.0, 0.0, 0.0, 0.0, 0.0, 0.0, 0.09, 0.0, 0.0, 0.0, 0.0, 0.0, 0.0, 0.09, 0.0, 0.0, 0.0, 0.0, 0.0, 0.0, 0.09]
---
header: 
  seq: 45
  stamp: 
    secs: 1459170105
    nsecs: 569380053
  frame_id: odom
child_frame_id: base_link
pose: 
  pose: 
    position: 
      x: -0.265027425732
      y: 0.249639923826
      z: 6.12216224301
    orientation: 
      x: 0.0282886119017
      y: 0.0228370580086
      z: -0.00193819201433
      w: 0.999337013539
  covariance: [0.1, 0.0, 0.0, 0.0, 0.0, 0.0, 0.0, 0.1, 0.0, 0.0, 0.0, 0.0, 0.0, 0.0, 0.1, 0.0, 0.0, 0.0, 0.0, 0.0, 0.0, 0.17, 0.0, 0.0, 0.0, 0.0, 0.0, 0.0, 0.17, 0.0, 0.0, 0.0, 0.0, 0.0, 0.0, 0.17]
twist: 
  twist: 
    linear: 
      x: -0.0158178355973
      y: -0.0297568264235
      z: 0.648514996551
    angular: 
      x: 0.039459473986
      y: 0.00487114748977
      z: 0.0152741912304
  covariance: [0.002, 0.0, 0.0, 0.0, 0.0, 0.0, 0.0, 0.002, 0.0, 0.0, 0.0, 0.0, 0.0, 0.0, 0.05, 0.0, 0.0, 0.0, 0.0, 0.0, 0.0, 0.09, 0.0, 0.0, 0.0, 0.0, 0.0, 0.0, 0.09, 0.0, 0.0, 0.0, 0.0, 0.0, 0.0, 0.09]
---
header: 
  seq: 46
  stamp: 
    secs: 1459170105
    nsecs: 636054212
  frame_id: odom
child_frame_id: base_link
pose: 
  pose: 
    position: 
      x: -0.268255285663
      y: 0.252212255096
      z: 6.15847447942
    orientation: 
      x: 0.0285143123284
      y: 0.0254295061482
      z: -0.00318395611995
      w: 0.999264798056
  covariance: [0.1, 0.0, 0.0, 0.0, 0.0, 0.0, 0.0, 0.1, 0.0, 0.0, 0.0, 0.0, 0.0, 0.0, 0.1, 0.0, 0.0, 0.0, 0.0, 0.0, 0.0, 0.17, 0.0, 0.0, 0.0, 0.0, 0.0, 0.0, 0.17, 0.0, 0.0, 0.0, 0.0, 0.0, 0.0, 0.17]
twist: 
  twist: 
    linear: 
      x: -0.0733795769362
      y: 0.0690130812086
      z: 0.538793425667
    angular: 
      x: 0.00752972195896
      y: 0.0767187370015
      z: -0.0393934446754
  covariance: [0.002, 0.0, 0.0, 0.0, 0.0, 0.0, 0.0, 0.002, 0.0, 0.0, 0.0, 0.0, 0.0, 0.0, 0.05, 0.0, 0.0, 0.0, 0.0, 0.0, 0.0, 0.09, 0.0, 0.0, 0.0, 0.0, 0.0, 0.0, 0.09, 0.0, 0.0, 0.0, 0.0, 0.0, 0.0, 0.09]
---
header: 
  seq: 47
  stamp: 
    secs: 1459170105
    nsecs: 702716436
  frame_id: odom
child_frame_id: base_link
pose: 
  pose: 
    position: 
      x: -0.279712929541
      y: 0.238315587187
      z: 6.20897836635
    orientation: 
      x: 0.0261968003534
      y: 0.0257320117883
      z: -0.00264545135633
      w: 0.999322066607
  covariance: [0.1, 0.0, 0.0, 0.0, 0.0, 0.0, 0.0, 0.1, 0.0, 0.0, 0.0, 0.0, 0.0, 0.0, 0.1, 0.0, 0.0, 0.0, 0.0, 0.0, 0.0, 0.17, 0.0, 0.0, 0.0, 0.0, 0.0, 0.0, 0.17, 0.0, 0.0, 0.0, 0.0, 0.0, 0.0, 0.17]
twist: 
  twist: 
    linear: 
      x: -0.209266619557
      y: -0.166412696992
      z: 0.758606601934
    angular: 
      x: -0.069967675278
      y: 0.0092647211756
      z: 0.0141229227714
  covariance: [0.002, 0.0, 0.0, 0.0, 0.0, 0.0, 0.0, 0.002, 0.0, 0.0, 0.0, 0.0, 0.0, 0.0, 0.05, 0.0, 0.0, 0.0, 0.0, 0.0, 0.0, 0.09, 0.0, 0.0, 0.0, 0.0, 0.0, 0.0, 0.09, 0.0, 0.0, 0.0, 0.0, 0.0, 0.0, 0.09]
---
header: 
  seq: 48
  stamp: 
    secs: 1459170105
    nsecs: 769348014
  frame_id: odom
child_frame_id: base_link
pose: 
  pose: 
    position: 
      x: -0.268188757846
      y: 0.264245183853
      z: 6.24983741051
    orientation: 
      x: 0.026660434562
      y: 0.0242823444217
      z: -0.00455916376789
      w: 0.999339183163
  covariance: [0.1, 0.0, 0.0, 0.0, 0.0, 0.0, 0.0, 0.1, 0.0, 0.0, 0.0, 0.0, 0.0, 0.0, 0.1, 0.0, 0.0, 0.0, 0.0, 0.0, 0.0, 0.17, 0.0, 0.0, 0.0, 0.0, 0.0, 0.0, 0.17, 0.0, 0.0, 0.0, 0.0, 0.0, 0.0, 0.17]
twist: 
  twist: 
    linear: 
      x: 0.139567471194
      y: 0.421779765181
      z: 0.599997519313
    angular: 
      x: 0.0154866722641
      y: -0.0449646606043
      z: -0.0559033655019
  covariance: [0.002, 0.0, 0.0, 0.0, 0.0, 0.0, 0.0, 0.002, 0.0, 0.0, 0.0, 0.0, 0.0, 0.0, 0.05, 0.0, 0.0, 0.0, 0.0, 0.0, 0.0, 0.09, 0.0, 0.0, 0.0, 0.0, 0.0, 0.0, 0.09, 0.0, 0.0, 0.0, 0.0, 0.0, 0.0, 0.09]
---
header: 
  seq: 49
  stamp: 
    secs: 1459170105
    nsecs: 969381758
  frame_id: odom
child_frame_id: base_link
pose: 
  pose: 
    position: 
      x: -0.244473476463
      y: 0.261568663295
      z: 6.37425608037
    orientation: 
      x: 0.0263842662252
      y: 0.0264181083449
      z: -0.0013730483602
      w: 0.999301790645
  covariance: [0.1, 0.0, 0.0, 0.0, 0.0, 0.0, 0.0, 0.1, 0.0, 0.0, 0.0, 0.0, 0.0, 0.0, 0.1, 0.0, 0.0, 0.0, 0.0, 0.0, 0.0, 0.17, 0.0, 0.0, 0.0, 0.0, 0.0, 0.0, 0.17, 0.0, 0.0, 0.0, 0.0, 0.0, 0.0, 0.17]
twist: 
  twist: 
    linear: 
      x: 0.0881783506809
      y: 0.0208783845885
      z: 0.626811698264
    angular: 
      x: -0.00362032398976
      y: 0.0221857582895
      z: 0.0311967442146
  covariance: [0.002, 0.0, 0.0, 0.0, 0.0, 0.0, 0.0, 0.002, 0.0, 0.0, 0.0, 0.0, 0.0, 0.0, 0.05, 0.0, 0.0, 0.0, 0.0, 0.0, 0.0, 0.09, 0.0, 0.0, 0.0, 0.0, 0.0, 0.0, 0.09, 0.0, 0.0, 0.0, 0.0, 0.0, 0.0, 0.09]
---
header: 
  seq: 50
  stamp: 
    secs: 1459170106
    nsecs: 36035938
  frame_id: odom
child_frame_id: base_link
pose: 
  pose: 
    position: 
      x: -0.255498786633
      y: 0.273441440634
      z: 6.40090265289
    orientation: 
      x: 0.0267310169795
      y: 0.0258734696883
      z: -0.00326547439568
      w: 0.999302433188
  covariance: [0.1, 0.0, 0.0, 0.0, 0.0, 0.0, 0.0, 0.1, 0.0, 0.0, 0.0, 0.0, 0.0, 0.0, 0.1, 0.0, 0.0, 0.0, 0.0, 0.0, 0.0, 0.17, 0.0, 0.0, 0.0, 0.0, 0.0, 0.0, 0.17, 0.0, 0.0, 0.0, 0.0, 0.0, 0.0, 0.17]
twist: 
  twist: 
    linear: 
      x: -0.186556352013
      y: 0.198243576627
      z: 0.380531519201
    angular: 
      x: 0.0119192552532
      y: -0.0178152344524
      z: -0.0560377368029
  covariance: [0.002, 0.0, 0.0, 0.0, 0.0, 0.0, 0.0, 0.002, 0.0, 0.0, 0.0, 0.0, 0.0, 0.0, 0.05, 0.0, 0.0, 0.0, 0.0, 0.0, 0.0, 0.09, 0.0, 0.0, 0.0, 0.0, 0.0, 0.0, 0.09, 0.0, 0.0, 0.0, 0.0, 0.0, 0.0, 0.09]
---
header: 
  seq: 51
  stamp: 
    secs: 1459170106
    nsecs: 102711095
  frame_id: odom
child_frame_id: base_link
pose: 
  pose: 
    position: 
      x: -0.259548531683
      y: 0.262651562747
      z: 6.46882247755
    orientation: 
      x: 0.02478790638
      y: 0.0252395974801
      z: -0.00433678553705
      w: 0.999364655522
  covariance: [0.1, 0.0, 0.0, 0.0, 0.0, 0.0, 0.0, 0.1, 0.0, 0.0, 0.0, 0.0, 0.0, 0.0, 0.1, 0.0, 0.0, 0.0, 0.0, 0.0, 0.0, 0.17, 0.0, 0.0, 0.0, 0.0, 0.0, 0.0, 0.17, 0.0, 0.0, 0.0, 0.0, 0.0, 0.0, 0.17]
twist: 
  twist: 
    linear: 
      x: -0.112677521015
      y: -0.107823338335
      z: 1.02139070701
    angular: 
      x: -0.0574016401996
      y: -0.0200981291141
      z: -0.0331065614002
  covariance: [0.002, 0.0, 0.0, 0.0, 0.0, 0.0, 0.0, 0.002, 0.0, 0.0, 0.0, 0.0, 0.0, 0.0, 0.05, 0.0, 0.0, 0.0, 0.0, 0.0, 0.0, 0.09, 0.0, 0.0, 0.0, 0.0, 0.0, 0.0, 0.09, 0.0, 0.0, 0.0, 0.0, 0.0, 0.0, 0.09]
---
header: 
  seq: 52
  stamp: 
    secs: 1459170106
    nsecs: 169339776
  frame_id: odom
child_frame_id: base_link
pose: 
  pose: 
    position: 
      x: -0.261895031868
      y: 0.254226187063
      z: 6.49380534815
    orientation: 
      x: 0.0236830057459
      y: 0.0261123832634
      z: -0.0038349742366
      w: 0.999371078054
  covariance: [0.1, 0.0, 0.0, 0.0, 0.0, 0.0, 0.0, 0.1, 0.0, 0.0, 0.0, 0.0, 0.0, 0.0, 0.1, 0.0, 0.0, 0.0, 0.0, 0.0, 0.0, 0.17, 0.0, 0.0, 0.0, 0.0, 0.0, 0.0, 0.17, 0.0, 0.0, 0.0, 0.0, 0.0, 0.0, 0.17]
twist: 
  twist: 
    linear: 
      x: -0.0532296047055
      y: -0.108146980632
      z: 0.378541845007
    angular: 
      x: -0.0336434353253
      y: 0.0264065447599
      z: 0.0135676922476
  covariance: [0.002, 0.0, 0.0, 0.0, 0.0, 0.0, 0.0, 0.002, 0.0, 0.0, 0.0, 0.0, 0.0, 0.0, 0.05, 0.0, 0.0, 0.0, 0.0, 0.0, 0.0, 0.09, 0.0, 0.0, 0.0, 0.0, 0.0, 0.0, 0.09, 0.0, 0.0, 0.0, 0.0, 0.0, 0.0, 0.09]
---
header: 
  seq: 53
  stamp: 
    secs: 1459170106
    nsecs: 236029760
  frame_id: odom
child_frame_id: base_link
pose: 
  pose: 
    position: 
      x: -0.250439247969
      y: 0.266849546978
      z: 6.53464581259
    orientation: 
      x: 0.0240284557094
      y: 0.0248121417832
      z: -0.00305584542195
      w: 0.999398645559
  covariance: [0.1, 0.0, 0.0, 0.0, 0.0, 0.0, 0.0, 0.1, 0.0, 0.0, 0.0, 0.0, 0.0, 0.0, 0.1, 0.0, 0.0, 0.0, 0.0, 0.0, 0.0, 0.17, 0.0, 0.0, 0.0, 0.0, 0.0, 0.0, 0.17, 0.0, 0.0, 0.0, 0.0, 0.0, 0.0, 0.17]
twist: 
  twist: 
    linear: 
      x: 0.138247403221
      y: 0.219461153627
      z: 0.610806928016
    angular: 
      x: 0.00987318983598
      y: -0.0383975859111
      z: 0.0245481840947
  covariance: [0.002, 0.0, 0.0, 0.0, 0.0, 0.0, 0.0, 0.002, 0.0, 0.0, 0.0, 0.0, 0.0, 0.0, 0.05, 0.0, 0.0, 0.0, 0.0, 0.0, 0.0, 0.09, 0.0, 0.0, 0.0, 0.0, 0.0, 0.0, 0.09, 0.0, 0.0, 0.0, 0.0, 0.0, 0.0, 0.09]
---
header: 
  seq: 54
  stamp: 
    secs: 1459170106
    nsecs: 302697568
  frame_id: odom
child_frame_id: base_link
pose: 
  pose: 
    position: 
      x: -0.244132174589
      y: 0.276421742471
      z: 6.57654507955
    orientation: 
      x: 0.0224985588784
      y: 0.0242023630627
      z: -0.00358188594013
      w: 0.999447462633
  covariance: [0.1, 0.0, 0.0, 0.0, 0.0, 0.0, 0.0, 0.1, 0.0, 0.0, 0.0, 0.0, 0.0, 0.0, 0.1, 0.0, 0.0, 0.0, 0.0, 0.0, 0.0, 0.17, 0.0, 0.0, 0.0, 0.0, 0.0, 0.0, 0.17, 0.0, 0.0, 0.0, 0.0, 0.0, 0.0, 0.17]
twist: 
  twist: 
    linear: 
      x: 0.0625191194134
      y: 0.174191902875
      z: 0.624738989774
    angular: 
      x: -0.0454562716006
      y: -0.0188378374801
      z: -0.0164662157102
  covariance: [0.002, 0.0, 0.0, 0.0, 0.0, 0.0, 0.0, 0.002, 0.0, 0.0, 0.0, 0.0, 0.0, 0.0, 0.05, 0.0, 0.0, 0.0, 0.0, 0.0, 0.0, 0.09, 0.0, 0.0, 0.0, 0.0, 0.0, 0.0, 0.09, 0.0, 0.0, 0.0, 0.0, 0.0, 0.0, 0.09]
---
header: 
  seq: 55
  stamp: 
    secs: 1459170106
    nsecs: 369377095
  frame_id: odom
child_frame_id: base_link
pose: 
  pose: 
    position: 
      x: -0.245285168687
      y: 0.262703175506
      z: 6.64447351997
    orientation: 
      x: 0.0204959794273
      y: 0.0251225388218
      z: -0.00285957098682
      w: 0.999470157496
  covariance: [0.1, 0.0, 0.0, 0.0, 0.0, 0.0, 0.0, 0.1, 0.0, 0.0, 0.0, 0.0, 0.0, 0.0, 0.1, 0.0, 0.0, 0.0, 0.0, 0.0, 0.0, 0.17, 0.0, 0.0, 0.0, 0.0, 0.0, 0.0, 0.17, 0.0, 0.0, 0.0, 0.0, 0.0, 0.0, 0.17]
twist: 
  twist: 
    linear: 
      x: -0.0654701783284
      y: -0.16002992713
      z: 1.02495976982
    angular: 
      x: -0.0606711880154
      y: 0.0278405371656
      z: 0.0195810609028
  covariance: [0.002, 0.0, 0.0, 0.0, 0.0, 0.0, 0.0, 0.002, 0.0, 0.0, 0.0, 0.0, 0.0, 0.0, 0.05, 0.0, 0.0, 0.0, 0.0, 0.0, 0.0, 0.09, 0.0, 0.0, 0.0, 0.0, 0.0, 0.0, 0.09, 0.0, 0.0, 0.0, 0.0, 0.0, 0.0, 0.09]
---
header: 
  seq: 56
  stamp: 
    secs: 1459170106
    nsecs: 436032960
  frame_id: odom
child_frame_id: base_link
pose: 
  pose: 
    position: 
      x: -0.24422536705
      y: 0.253409308608
      z: 6.69020641334
    orientation: 
      x: 0.019835201696
      y: 0.0251505424135
      z: -0.000908484608126
      w: 0.999486462963
  covariance: [0.1, 0.0, 0.0, 0.0, 0.0, 0.0, 0.0, 0.1, 0.0, 0.0, 0.0, 0.0, 0.0, 0.0, 0.1, 0.0, 0.0, 0.0, 0.0, 0.0, 0.0, 0.17, 0.0, 0.0, 0.0, 0.0, 0.0, 0.0, 0.17, 0.0, 0.0, 0.0, 0.0, 0.0, 0.0, 0.17]
twist: 
  twist: 
    linear: 
      x: -0.0180028535312
      y: -0.111192621914
      z: 0.691191191086
    angular: 
      x: -0.021299210307
      y: 0.00197069084298
      z: 0.057997183862
  covariance: [0.002, 0.0, 0.0, 0.0, 0.0, 0.0, 0.0, 0.002, 0.0, 0.0, 0.0, 0.0, 0.0, 0.0, 0.05, 0.0, 0.0, 0.0, 0.0, 0.0, 0.0, 0.09, 0.0, 0.0, 0.0, 0.0, 0.0, 0.0, 0.09, 0.0, 0.0, 0.0, 0.0, 0.0, 0.0, 0.09]
---
header: 
  seq: 57
  stamp: 
    secs: 1459170106
    nsecs: 502682912
  frame_id: odom
child_frame_id: base_link
pose: 
  pose: 
    position: 
      x: -0.245467566855
      y: 0.256722679178
      z: 6.7325620916
    orientation: 
      x: 0.0198811843295
      y: 0.0255483213272
      z: -0.000627522957987
      w: 0.999475676543
  covariance: [0.1, 0.0, 0.0, 0.0, 0.0, 0.0, 0.0, 0.1, 0.0, 0.0, 0.0, 0.0, 0.0, 0.0, 0.1, 0.0, 0.0, 0.0, 0.0, 0.0, 0.0, 0.17, 0.0, 0.0, 0.0, 0.0, 0.0, 0.0, 0.17, 0.0, 0.0, 0.0, 0.0, 0.0, 0.0, 0.17]
twist: 
  twist: 
    linear: 
      x: -0.0506272914458
      y: 0.074789716996
      z: 0.631280752851
    angular: 
      x: 0.00116264924334
      y: 0.0121068547926
      z: 0.00822428321482
  covariance: [0.002, 0.0, 0.0, 0.0, 0.0, 0.0, 0.0, 0.002, 0.0, 0.0, 0.0, 0.0, 0.0, 0.0, 0.05, 0.0, 0.0, 0.0, 0.0, 0.0, 0.0, 0.09, 0.0, 0.0, 0.0, 0.0, 0.0, 0.0, 0.09, 0.0, 0.0, 0.0, 0.0, 0.0, 0.0, 0.09]
---
header: 
  seq: 58
  stamp: 
    secs: 1459170106
    nsecs: 636020547
  frame_id: odom
child_frame_id: base_link
pose: 
  pose: 
    position: 
      x: -0.236422768029
      y: 0.263145094083
      z: 6.80675613904
    orientation: 
      x: 0.0201357656156
      y: 0.0262872475409
      z: 8.93396777009e-05
      w: 0.999451611424
  covariance: [0.1, 0.0, 0.0, 0.0, 0.0, 0.0, 0.0, 0.1, 0.0, 0.0, 0.0, 0.0, 0.0, 0.0, 0.1, 0.0, 0.0, 0.0, 0.0, 0.0, 0.0, 0.17, 0.0, 0.0, 0.0, 0.0, 0.0, 0.0, 0.17, 0.0, 0.0, 0.0, 0.0, 0.0, 0.0, 0.17]
twist: 
  twist: 
    linear: 
      x: 0.0393026481049
      y: 0.0703782693802
      z: 0.556817948143
    angular: 
      x: 0.00354210512969
      y: 0.0113031189711
      z: 0.010623935177
  covariance: [0.002, 0.0, 0.0, 0.0, 0.0, 0.0, 0.0, 0.002, 0.0, 0.0, 0.0, 0.0, 0.0, 0.0, 0.05, 0.0, 0.0, 0.0, 0.0, 0.0, 0.0, 0.09, 0.0, 0.0, 0.0, 0.0, 0.0, 0.0, 0.09, 0.0, 0.0, 0.0, 0.0, 0.0, 0.0, 0.09]
---
header: 
  seq: 59
  stamp: 
    secs: 1459170106
    nsecs: 702710555
  frame_id: odom
child_frame_id: base_link
pose: 
  pose: 
    position: 
      x: -0.238416916774
      y: 0.276349200511
      z: 6.81684151147
    orientation: 
      x: 0.021895399282
      y: 0.0243050515584
      z: -0.00349572778756
      w: 0.999458671405
  covariance: [0.1, 0.0, 0.0, 0.0, 0.0, 0.0, 0.0, 0.1, 0.0, 0.0, 0.0, 0.0, 0.0, 0.0, 0.1, 0.0, 0.0, 0.0, 0.0, 0.0, 0.0, 0.17, 0.0, 0.0, 0.0, 0.0, 0.0, 0.0, 0.17, 0.0, 0.0, 0.0, 0.0, 0.0, 0.0, 0.17]
twist: 
  twist: 
    linear: 
      x: -0.0375612908185
      y: 0.203892944797
      z: 0.141356540839
    angular: 
      x: 0.0555584623743
      y: -0.0615878361685
      z: -0.104871623706
  covariance: [0.002, 0.0, 0.0, 0.0, 0.0, 0.0, 0.0, 0.002, 0.0, 0.0, 0.0, 0.0, 0.0, 0.0, 0.05, 0.0, 0.0, 0.0, 0.0, 0.0, 0.0, 0.09, 0.0, 0.0, 0.0, 0.0, 0.0, 0.0, 0.09, 0.0, 0.0, 0.0, 0.0, 0.0, 0.0, 0.09]
---
header: 
  seq: 60
  stamp: 
    secs: 1459170106
    nsecs: 769377623
  frame_id: odom
child_frame_id: base_link
pose: 
  pose: 
    position: 
      x: -0.250024715956
      y: 0.263175562802
      z: 6.87303100764
    orientation: 
      x: 0.0233529509504
      y: 0.0273319546071
      z: -0.0020476424462
      w: 0.999351495271
  covariance: [0.1, 0.0, 0.0, 0.0, 0.0, 0.0, 0.0, 0.1, 0.0, 0.0, 0.0, 0.0, 0.0, 0.0, 0.1, 0.0, 0.0, 0.0, 0.0, 0.0, 0.0, 0.17, 0.0, 0.0, 0.0, 0.0, 0.0, 0.0, 0.17, 0.0, 0.0, 0.0, 0.0, 0.0, 0.0, 0.17]
twist: 
  twist: 
    linear: 
      x: -0.213812755609
      y: -0.162065743737
      z: 0.841282999287
    angular: 
      x: 0.0423998084217
      y: 0.0919397827256
      z: 0.0424821614111
  covariance: [0.002, 0.0, 0.0, 0.0, 0.0, 0.0, 0.0, 0.002, 0.0, 0.0, 0.0, 0.0, 0.0, 0.0, 0.05, 0.0, 0.0, 0.0, 0.0, 0.0, 0.0, 0.09, 0.0, 0.0, 0.0, 0.0, 0.0, 0.0, 0.09, 0.0, 0.0, 0.0, 0.0, 0.0, 0.0, 0.09]
---
header: 
  seq: 61
  stamp: 
    secs: 1459170106
    nsecs: 836045745
  frame_id: odom
child_frame_id: base_link
pose: 
  pose: 
    position: 
      x: -0.245888974172
      y: 0.26598170136
      z: 6.91562996813
    orientation: 
      x: 0.0223938715938
      y: 0.026381613872
      z: -0.00280167305115
      w: 0.999397156086
  covariance: [0.1, 0.0, 0.0, 0.0, 0.0, 0.0, 0.0, 0.1, 0.0, 0.0, 0.0, 0.0, 0.0, 0.0, 0.1, 0.0, 0.0, 0.0, 0.0, 0.0, 0.0, 0.17, 0.0, 0.0, 0.0, 0.0, 0.0, 0.0, 0.17, 0.0, 0.0, 0.0, 0.0, 0.0, 0.0, 0.17]
twist: 
  twist: 
    linear: 
      x: 0.0268559555062
      y: 0.0721307899512
      z: 0.638732442028
    angular: 
      x: -0.0281084560756
      y: -0.0291157297775
      z: -0.0227235640615
  covariance: [0.002, 0.0, 0.0, 0.0, 0.0, 0.0, 0.0, 0.002, 0.0, 0.0, 0.0, 0.0, 0.0, 0.0, 0.05, 0.0, 0.0, 0.0, 0.0, 0.0, 0.0, 0.09, 0.0, 0.0, 0.0, 0.0, 0.0, 0.0, 0.09, 0.0, 0.0, 0.0, 0.0, 0.0, 0.0, 0.09]
---
header: 
  seq: 62
  stamp: 
    secs: 1459170106
    nsecs: 969378499
  frame_id: odom
child_frame_id: base_link
pose: 
  pose: 
    position: 
      x: -0.23371953691
      y: 0.257901335557
      z: 7.02087469552
    orientation: 
      x: 0.0230913334806
      y: 0.025417971276
      z: -0.00197456718437
      w: 0.999408233976
  covariance: [0.1, 0.0, 0.0, 0.0, 0.0, 0.0, 0.0, 0.1, 0.0, 0.0, 0.0, 0.0, 0.0, 0.0, 0.1, 0.0, 0.0, 0.0, 0.0, 0.0, 0.0, 0.17, 0.0, 0.0, 0.0, 0.0, 0.0, 0.0, 0.17, 0.0, 0.0, 0.0, 0.0, 0.0, 0.0, 0.17]
twist: 
  twist: 
    linear: 
      x: 0.049688456855
      y: -0.0247076023163
      z: 0.794971458131
    angular: 
      x: 0.0101651393221
      y: -0.0141432327981
      z: 0.0129993332266
  covariance: [0.002, 0.0, 0.0, 0.0, 0.0, 0.0, 0.0, 0.002, 0.0, 0.0, 0.0, 0.0, 0.0, 0.0, 0.05, 0.0, 0.0, 0.0, 0.0, 0.0, 0.0, 0.09, 0.0, 0.0, 0.0, 0.0, 0.0, 0.0, 0.09, 0.0, 0.0, 0.0, 0.0, 0.0, 0.0, 0.09]
---
header: 
  seq: 63
  stamp: 
    secs: 1459170107
    nsecs: 36050119
  frame_id: odom
child_frame_id: base_link
pose: 
  pose: 
    position: 
      x: -0.215320352387
      y: 0.267194088248
      z: 7.07024953824
    orientation: 
      x: 0.0239871632431
      y: 0.0249769973839
      z: -0.0035676709277
      w: 0.999393834945
  covariance: [0.1, 0.0, 0.0, 0.0, 0.0, 0.0, 0.0, 0.1, 0.0, 0.0, 0.0, 0.0, 0.0, 0.0, 0.1, 0.0, 0.0, 0.0, 0.0, 0.0, 0.0, 0.17, 0.0, 0.0, 0.0, 0.0, 0.0, 0.0, 0.17, 0.0, 0.0, 0.0, 0.0, 0.0, 0.0, 0.17]
twist: 
  twist: 
    linear: 
      x: 0.237529320875
      y: 0.174751156396
      z: 0.746369362401
    angular: 
      x: 0.0281078180959
      y: -0.0142598976414
      z: -0.0467736496828
  covariance: [0.002, 0.0, 0.0, 0.0, 0.0, 0.0, 0.0, 0.002, 0.0, 0.0, 0.0, 0.0, 0.0, 0.0, 0.05, 0.0, 0.0, 0.0, 0.0, 0.0, 0.0, 0.09, 0.0, 0.0, 0.0, 0.0, 0.0, 0.0, 0.09, 0.0, 0.0, 0.0, 0.0, 0.0, 0.0, 0.09]
---
header: 
  seq: 64
  stamp: 
    secs: 1459170107
    nsecs: 102710425
  frame_id: odom
child_frame_id: base_link
pose: 
  pose: 
    position: 
